,Country,Admin1,Facility name,Facility type,Ownership,Lat,Long,LL source
0,Angola,Bengo,Hospital Barra Do Dande,Hospital,Govt.,-8.656,13.4919,Google Earth
1,Angola,Bengo,Hospital Dos Dembos,Hospital,Govt.,-8.5026,14.5862,Google Earth
2,Angola,Bengo,Hospital Municipal de Ambriz,Municipal Hospital,Govt.,-7.8522,13.1307,Google Earth
3,Angola,Bengo,Hospital Municipal de Bula Atumba,Municipal Hospital,Govt.,-8.6742,14.7925,Google Earth
4,Angola,Bengo,Hospital Municipal de Dande,Municipal Hospital,Govt.,-8.5835,13.6569,Google Earth
5,Angola,Bengo,Hospital Municipal de Nambuangogo,Municipal Hospital,Govt.,-8.1328,14.2947,Google Earth
6,Angola,Bengo,Hospital Municipal de Pango Aluquem,Municipal Hospital,Govt.,-8.7131,14.4626,Google Earth
7,Angola,Bengo,Hospital Municipal de Quibaxe,Municipal Hospital,Govt.,-8.4996,14.5866,Google Earth
8,Angola,Bengo,Hospital Provincial de Bengo ,Provincial Hospital,Govt.,-8.5824,13.6594,Google Earth
9,Angola,Benguela,27 de Marto Health Post,Posto de Saúde,MoH,,,
10,Angola,Benguela,Abrigo Anjo da Guarda Health Centre,Centro de Saúde,MoH,-12.3507,13.5456,Combination
11,Angola,Benguela,Acude Health Post,Posto de Saúde,MoH,-12.4291,13.5415,Combination
12,Angola,Benguela,Alto Kapaca Health Post,Posto de Saúde,MoH,-12.9583,14.4234,Other
13,Angola,Benguela,Alto Liro Health Centre,Centro de Saúde,MoH,-11.9854,13.9792,Other
14,Angola,Benguela,Alto Niva Health Centre,Centro de Saúde,MoH,,,
15,Angola,Benguela,Alto-Catumbela Health Centre,Centro de Saúde,MoH,-12.95,14.75,Other
16,Angola,Benguela,Asseque Health Centre,Centro de Saúde,MoH,-12.5964,13.4597,Other
17,Angola,Benguela,Atuque Health Post,Posto de Saúde,MoH,-12.9736,14.6581,Other
18,Angola,Benguela,Babaera Health Post,Posto de Saúde,MoH,-12.8953,14.8021,Other
19,Angola,Benguela,Baia Farta Centro Materno Infantil,Centro Materno Infantil,MoH,-12.607,13.1983,Combination
20,Angola,Benguela,Baia-Azul Health Post,Posto de Saúde,MoH,-12.6196,13.2466,Other
21,Angola,Benguela,Baia-Elefantes Health Post,Posto de Saúde,MoH,-13.2333,12.7259,Other
22,Angola,Benguela,Baia-Farta Municipal Hospital,Municipal Hospital,Govt.,-12.6082,13.2001,Other
23,Angola,Benguela,Bairro 80 Health Post,Posto de Saúde,MoH,-13.0358,14.2766,Combination
24,Angola,Benguela,Balanca Health Post,Posto de Saúde,MoH,-12.392,14.0901,Other
25,Angola,Benguela,Balombo Municipal Hospital,Municipal Hospital,Govt.,-12.3491,14.7701,Other
26,Angola,Benguela,Beato Laval (Missao Njinga) Health Centre,Centro de Saúde,MoH,-12.6117,13.1957,Combination
27,Angola,Benguela,Bela Vista Baixa Health Post,Posto de Saúde,MoH,,,
28,Angola,Benguela,Bela Vista Health Post,Posto de Saúde,MoH,-12.5786,13.4025,Other
29,Angola,Benguela,Bela Vistal  Centro Materno Infantil,Centro de Saúde,MoH,-12.3687,13.5746,Other
30,Angola,Benguela,Benfica Health Post,Posto de Saúde,MoH,-12.5688,13.4081,Other
31,Angola,Benguela,Benguela 70 Hospital,Hospital,Govt.,-12.6235,13.2321,Google Earth
32,Angola,Benguela,Benguela 71 Health Post,Posto de Saúde,MoH,-12.5861,13.3902,Google Earth
33,Angola,Benguela,Benguela Centro Materno Infantil,Centro Materno Infantil,MoH,-12.5803,13.4078,Other
34,Angola,Benguela,Benguela Provincial Hospital,Provincial Hospital,Govt.,-12.5732,13.4007,Google Earth
35,Angola,Benguela,Benguela/Lobito Hospital,Central Hospital,Govt.,-12.35,13.55,Other
36,Angola,Benguela,Bimbas Health Post,Posto de Saúde,MoH,-12.6661,13.5087,Other
37,Angola,Benguela,Biopio Health Post,Posto de Saúde,MoH,-12.467,13.733,Encarta
38,Angola,Benguela,Boa Lembranta Health Post,Posto de Saúde,MoH,-12.9404,12.981,Other
39,Angola,Benguela,Bocoio Missao Catolica Health Post,Posto de Saúde,MoH,-12.4704,14.1405,Combination
40,Angola,Benguela,Bocoio Municipal Hospital,Municipal Hospital,Govt.,-12.4961,14.1361,Other
41,Angola,Benguela,Bolonguera Health Post,Posto de Saúde,MoH,-13.55,13.5833,Other
42,Angola,Benguela,Bumbua Health Post,Posto de Saúde,MoH,-12.9701,14.135,Other
43,Angola,Benguela,Bunjei Health Post,Posto de Saúde,MoH,-13.5825,13.9431,Combination
44,Angola,Benguela,Cachimano Health Post,Posto de Saúde,MoH,-13.0216,14.0027,Combination
45,Angola,Benguela,Cachimbumba Health Post,Posto de Saúde,MoH,-12.625,13.2373,Combination
46,Angola,Benguela,Cacula Health Post,Posto de Saúde,MoH,-11.9639,13.7861,Other
47,Angola,Benguela,Caimbambo Missao Catolica Health Post,Posto de Saúde,MoH,-13.0258,14.0018,Google Earth
48,Angola,Benguela,Caimbambo Municipal Hospital,Municipal Hospital,Govt.,-13.017,14.0,Other
49,Angola,Benguela,Cainde Health Post,Posto de Saúde,MoH,-13.2563,14.5106,Other
50,Angola,Benguela,Calei Health Post,Posto de Saúde,MoH,-13.0262,14.0013,Other
51,Angola,Benguela,Calomburaco Health Post,Posto de Saúde,MoH,-12.6068,13.3777,Other
52,Angola,Benguela,Calombwe Health Centre,Centro de Saúde,MoH,-12.5984,13.3935,Encarta
53,Angola,Benguela,Calondjindjo Health Post,Posto de Saúde,MoH,-13.0312,14.6439,Combination
54,Angola,Benguela,Calondo Health Post,Posto de Saúde,MoH,-13.031,14.0059,Combination
55,Angola,Benguela,Calossombekwa Health Centre,Centro de Saúde,MoH,-12.6116,13.4318,Other
56,Angola,Benguela,Calundo Health Post,Posto de Saúde,MoH,-12.7833,14.5833,Other
57,Angola,Benguela,Cambanda Health Centre,Centro de Saúde,MoH,-12.5913,13.4107,Other
58,Angola,Benguela,Cambangela Health Post,Posto de Saúde,MoH,-12.5742,13.4522,Other
59,Angola,Benguela,Camuine Health Post,Posto de Saúde,MoH,,,
60,Angola,Benguela,Camuine-Baixo Health Post,Posto de Saúde,MoH,-13.8209,14.2066,Other
61,Angola,Benguela,Camunda Health Centre,Centro de Saúde,MoH,-12.5934,13.4144,Other
62,Angola,Benguela,Cangoia Health Post,Posto de Saúde,MoH,-12.5703,14.2332,Other
63,Angola,Benguela,Canguengo Health Post,Posto de Saúde,MoH,-12.8966,13.1226,Other
64,Angola,Benguela,Canhamela Health Post,Posto de Saúde,MoH,-13.0328,14.0174,Combination
65,Angola,Benguela,Canjala Health Centre,Centro de Saúde,MoH,-11.9714,13.9939,Other
66,Angola,Benguela,Canjola Health Post,Posto de Saúde,MoH,-13.0653,14.8007,Other
67,Angola,Benguela,Caota Health Post,Posto de Saúde,MoH,-12.5993,13.4111,Other
68,Angola,Benguela,Capilongo Health Post,Posto de Saúde,MoH,-12.6242,13.6809,Other
69,Angola,Benguela,Cassai Health Post,Posto de Saúde,MoH,-12.3825,13.5963,Combination
70,Angola,Benguela,Casseque Health Post,Posto de Saúde,MoH,-13.3202,14.7256,Other
71,Angola,Benguela,Cassima Vivo Health Post,Posto de Saúde,MoH,-13.0259,14.0016,Google Earth
72,Angola,Benguela,Cassiva Health Post,Posto de Saúde,MoH,-13.0866,14.2898,Other
73,Angola,Benguela,Catanda Health Post,Posto de Saúde,MoH,-12.7,14.6667,Other
74,Angola,Benguela,Catchimbango Health Post,Posto de Saúde,MoH,-12.9679,14.5297,Combination
75,Angola,Benguela,Catengue Health Post,Posto de Saúde,MoH,-13.0333,13.75,Other
76,Angola,Benguela,Catumbela Municipal Hospital,Municipal Hospital,Govt.,-12.4317,13.5457,Google Earth
77,Angola,Benguela,Caundy Health Post,Posto de Saúde,MoH,-12.4371,13.5295,Combination
78,Angola,Benguela,Cavimbi2 Health Post,Posto de Saúde,MoH,-12.2014,14.3317,Other
79,Angola,Benguela,Cavindgiliti Health Post,Posto de Saúde,MoH,,,
80,Angola,Benguela,Cawango Health Post,Posto de Saúde,MoH,-12.5465,13.4318,Other
81,Angola,Benguela,Chacuma Health Post,Posto de Saúde,MoH,-12.8668,14.7884,Other
82,Angola,Benguela,Chamume Health Centre,Centro de Saúde,MoH,-12.7167,13.1,Other
83,Angola,Benguela,Chicandula Health Post,Posto de Saúde,MoH,,,
84,Angola,Benguela,Chico da Waity Health Post,Posto de Saúde,MoH,-12.2793,14.8161,Other
85,Angola,Benguela,Chila Health Centre,Centro de Saúde,MoH,-12.066,14.4861,Other
86,Angola,Benguela,Chimbambo Health Post,Posto de Saúde,MoH,,,
87,Angola,Benguela,Chimbassi Health Post,Posto de Saúde,MoH,-13.1833,14.2,Other
88,Angola,Benguela,Chimboa Health Post,Posto de Saúde,MoH,-12.9667,14.4667,Other
89,Angola,Benguela,Chindumbo Health Centre,Centro de Saúde,MoH,-12.956,13.1085,Other
90,Angola,Benguela,Chinduri Health Post,Posto de Saúde,MoH,-12.5905,14.2169,Other
91,Angola,Benguela,Chingongo Health Post,Posto de Saúde,MoH,-12.3167,14.5167,Other
92,Angola,Benguela,Chivole Health Post,Posto de Saúde,MoH,,,
93,Angola,Benguela,Cho Mujombue Health Post,Posto de Saúde,MoH,-13.5855,13.941,Other
94,Angola,Benguela,Chongoroi Municipal Hospital,Municipal Hospital,Govt.,-13.5733,13.9407,Other
95,Angola,Benguela,Chongoroil Centro Materno Infantil,Centro de Saúde,MoH,-13.567,13.95,Other
96,Angola,Benguela,Cotel Health Post,Posto de Saúde,MoH,-12.5493,13.4229,Combination
97,Angola,Benguela,Cubal Municipal Hospital,Municipal Hospital,Govt.,-13.0321,14.2531,Other
98,Angola,Benguela,Cuball Centro Materno Infantil,Centro de Saúde,MoH,-13.0333,14.25,Other
99,Angola,Benguela,Cuca Health Post,Posto de Saúde,MoH,-12.4637,13.521,Combination
100,Angola,Benguela,Cui Povoacao Health Post,Posto de Saúde,MoH,,,
101,Angola,Benguela,Culango Health Post,Posto de Saúde,MoH,-12.3,13.85,Other
102,Angola,Benguela,Cutembo Health Post,Posto de Saúde,MoH,-13.8154,13.9702,Other
103,Angola,Benguela,Damba Maria Health Post,Posto de Saúde,MoH,-12.5265,13.4623,Other
104,Angola,Benguela,Dembue Health Post,Posto de Saúde,MoH,-13.0645,14.5911,Other
105,Angola,Benguela,Dombe Grande Communal Hospital,Municipal Hospital,Govt.,-12.9447,13.0978,Other
106,Angola,Benguela,Dumbo Oliveira Health Post,Posto de Saúde,MoH,-12.9358,14.6325,Other
107,Angola,Benguela,Ebanga Health Centre,Centro de Saúde,MoH,-12.73,14.73,Other
108,Angola,Benguela,Egipto Praia Health Post,Posto de Saúde,MoH,-11.9611,13.7664,Other
109,Angola,Benguela,Elongo Health Post,Posto de Saúde,MoH,-12.3437,14.9574,Other
110,Angola,Benguela,Epembe Health Post,Posto de Saúde,MoH,-12.4712,14.141,Combination
111,Angola,Benguela,Equimina Health Centre,Centro de Saúde,MoH,-13.2,12.8,Other
112,Angola,Benguela,Eyendue Health Post,Posto de Saúde,MoH,-13.0311,14.0129,Combination
113,Angola,Benguela,Fasil Health Post,Posto de Saúde,MoH,-12.4622,14.1303,Combination
114,Angola,Benguela,Fonte das Gracas Health Post,Posto de Saúde,MoH,-12.3664,13.5782,Google Earth
115,Angola,Benguela,Fronteira Health Centre,Centro de Saúde,MoH,-12.5947,13.4222,Other
116,Angola,Benguela,Gama Health Post,Posto de Saúde,MoH,-12.5074,13.4975,Other
117,Angola,Benguela,Ganda Municipal Hospital,Municipal Hospital,Govt.,-13.0161,14.6361,Other
118,Angola,Benguela,Gaspar Lopes Health Centre,Centro de Saúde,MoH,,,
119,Angola,Benguela,Gato Health Post,Posto de Saúde,MoH,,,
120,Angola,Benguela,Grata Centro Materno Infantil,Centro Materno Infantil,MoH,-12.5604,13.4392,Combination
121,Angola,Benguela,Hanha do Norte Health Post,Posto de Saúde,MoH,-12.2437,13.7162,Other
122,Angola,Benguela,Hanja Primaria Health Post,Posto de Saúde,MoH,-13.699,13.882,Encarta
123,Angola,Benguela,Hungulo Health Post,Posto de Saúde,MoH,-12.3291,14.888,Other
124,Angola,Benguela,Igreja EvangTlica Sinodal de Angola (IESA) Health Centre,Centro de Saúde,MoH,,,
125,Angola,Benguela,Joaquim Kapango Health Post,Posto de Saúde,MoH,-12.5852,13.4138,Combination
126,Angola,Benguela,Kafindua Health Post,Posto de Saúde,MoH,-12.3497,14.7683,Combination
127,Angola,Benguela,Kalahanga Health Centre,Centro de Saúde,MoH,-13.2219,13.4914,Other
128,Angola,Benguela,Kaliamuma Health Post,Posto de Saúde,MoH,-12.8,14.15,Other
129,Angola,Benguela,Kambondogolo Health Post,Posto de Saúde,MoH,-13.35,14.4,Other
130,Angola,Benguela,Kanbandjo Health Post,Posto de Saúde,MoH,-12.3524,14.7698,Google Earth
131,Angola,Benguela,Kandioguilo Health Post,Posto de Saúde,MoH,,,
132,Angola,Benguela,Kanokela Health Post,Posto de Saúde,MoH,-12.3389,14.7677,Google Earth
133,Angola,Benguela,Kaponte Pequena Health Post,Posto de Saúde,MoH,-12.5736,13.4312,Encarta
134,Angola,Benguela,Kapupa Health Centre,Centro de Saúde,MoH,,,
135,Angola,Benguela,Kassanje CTE Health Post,Posto de Saúde,MoH,-12.6157,13.1863,Other
136,Angola,Benguela,Kateke Health Post,Posto de Saúde,MoH,-12.4671,14.1262,Other
137,Angola,Benguela,Katima Health Post,Posto de Saúde,MoH,-13.0547,14.6015,Other
138,Angola,Benguela,Kayave Health Post,Posto de Saúde,MoH,-12.783,13.949,Encarta
139,Angola,Benguela,Kuyo Health Post,Posto de Saúde,MoH,-12.983,12.983,Encarta
140,Angola,Benguela,Lembi-Lembi Health Post,Posto de Saúde,MoH,,,
141,Angola,Benguela,Lomboloque Health Centre,Centro de Saúde,MoH,,,
142,Angola,Benguela,Lometi Health Post,Posto de Saúde,MoH,-12.376,14.5616,Other
143,Angola,Benguela,Lomia Health Post,Posto de Saúde,MoH,-13.194,14.1086,Other
144,Angola,Benguela,Lomumu Health Post,Posto de Saúde,MoH,-12.8643,14.5571,Other
145,Angola,Benguela,Lossala Health Post,Posto de Saúde,MoH,-12.9722,13.9879,Other
146,Angola,Benguela,Lossinja Health Post,Posto de Saúde,MoH,-12.4776,13.9441,Other
147,Angola,Benguela,Luacho Health Post,Posto de Saúde,MoH,-12.8918,13.0001,Other
148,Angola,Benguela,Lulambo Health Post,Posto de Saúde,MoH,,,
149,Angola,Benguela,Lulandi Health Post,Posto de Saúde,MoH,,,
150,Angola,Benguela,Lumaun Health Post,Posto de Saúde,MoH,-12.7259,14.3863,Other
151,Angola,Benguela,Lumbili Health Post,Posto de Saúde,MoH,-13.581,13.9426,Combination
152,Angola,Benguela,Lumbo Health Centre,Centro de Saúde,MoH,-12.6323,13.4235,Other
153,Angola,Benguela,Luoluo Health Post,Posto de Saúde,MoH,-12.4499,13.6095,Other
154,Angola,Benguela,Luongo Health Post,Posto de Saúde,MoH,-12.459,13.5497,Combination
155,Angola,Benguela,Lussipa Health Post,Posto de Saúde,MoH,-13.0232,14.6359,Combination
156,Angola,Benguela,Macaca Health Post,Posto de Saúde,MoH,-12.6108,13.1968,Other
157,Angola,Benguela,Mahumbulu Health Post,Posto de Saúde,MoH,-13.0284,13.9941,Combination
158,Angola,Benguela,Maka Mombolo Health Centre,Centro de Saúde,MoH,-12.628,13.201,Encarta
159,Angola,Benguela,Malongo Missao Health Post,Posto de Saúde,MoH,-13.4608,14.1087,Other
160,Angola,Benguela,Malowe Health Post,Posto de Saúde,MoH,-13.0801,13.9804,Other
161,Angola,Benguela,Mange Health Post,Posto de Saúde,MoH,-12.3167,14.1167,Other
162,Angola,Benguela,Marco Canavez Health Post,Posto de Saúde,MoH,-13.041,14.2442,Other
163,Angola,Benguela,Massangarala Health Centre,Centro de Saúde,MoH,-12.5845,13.4054,Combination
164,Angola,Benguela,M'Bambi Health Centre,Centro de Saúde,MoH,-13.0236,14.0019,Other
165,Angola,Benguela,Mina Health Post,Posto de Saúde,MoH,-12.6114,13.5203,Other
166,Angola,Benguela,Missao Catolica Health Centre,Centro de Saúde,MoH,-13.0236,14.0082,Combination
167,Angola,Benguela,Missao Dunde Health Post,Posto de Saúde,MoH,-12.8835,14.5847,Other
168,Angola,Benguela,Missao Kapusso Health Post,Posto de Saúde,MoH,-12.6964,14.4752,Other
169,Angola,Benguela,Monte Belo Health Centre,Centro de Saúde,MoH,-12.418,14.3949,Other
170,Angola,Benguela,Muhaningo Health Post,Posto de Saúde,MoH,-12.6123,13.1965,Combination
171,Angola,Benguela,Mulumba Health Centre,Centro de Saúde,MoH,,,
172,Angola,Benguela,Munguavolo Health Post,Posto de Saúde,MoH,,,
173,Angola,Benguela,Navegantes Health Post,Posto de Saúde,MoH,-12.5309,13.4548,Combination
174,Angola,Benguela,Ndende Health Post,Posto de Saúde,MoH,-12.9482,14.4515,Other
175,Angola,Benguela,Ndoloma Health Post,Posto de Saúde,MoH,-12.6284,13.2027,Other
176,Angola,Benguela,Ngoma Health Post,Posto de Saúde,MoH,-13.1208,14.0996,Other
177,Angola,Benguela,Ningui-Ningui Health Post,Posto de Saúde,MoH,-13.3243,13.8267,Other
178,Angola,Benguela,Nossa Senhora da Paz Hospital,Hospital,Govt.,-13.0404,14.2363,Google Earth
179,Angola,Benguela,Nzagi Career and Technical Education Health Post,Posto de Saúde,MoH,-12.3952,13.5557,Google Earth
180,Angola,Benguela,Paroquia Health Post,Posto de Saúde,MoH,,,
181,Angola,Benguela,Passe Health Post,Posto de Saúde,MoH,-12.5667,13.9667,Other
182,Angola,Benguela,Posto Bom Pastor,Posto de Saúde,MoH,-12.3867,13.5917,Combination
183,Angola,Benguela,Praia Bebe Health Centre,Centro de Saúde,MoH,-13.1264,13.7693,Other
184,Angola,Benguela,Pupira Health Post,Posto de Saúde,MoH,-12.9268,13.9484,Other
185,Angola,Benguela,Quisquerof Health Post,Posto de Saúde,MoH,-13.0359,14.2328,Combination
186,Angola,Benguela,Rio Bom Health Post,Posto de Saúde,MoH,-13.0683,14.2709,Other
187,Angola,Benguela,S.S. Luanga Health Centre,Centro de Saúde,MoH,,,
188,Angola,Benguela,Saco Health Post,Posto de Saúde,MoH,-12.8238,12.9732,Other
189,Angola,Benguela,Santa Cruz Health Post,Posto de Saúde,MoH,-12.3979,13.553,Other
190,Angola,Benguela,Santa Maria Health Post,Posto de Saúde,MoH,-13.0239,14.6357,Combination
191,Angola,Benguela,Santo Antonio Health Post,Posto de Saúde,MoH,-12.6083,13.3217,Other
192,Angola,Benguela,Sao Joao Health Centre,Centro de Saúde,MoH,-12.5,13.51,Other
193,Angola,Benguela,Sao Jose Health Post,Posto de Saúde,MoH,-12.6134,13.1858,Combination
194,Angola,Benguela,Sao Martinho de Lima Health Centre,Centro de Saúde,MoH,-12.3657,13.5599,Combination
195,Angola,Benguela,Sao Pedro de Calabria Health Post,Posto de Saúde,MoH,-12.4195,13.7794,Combination
196,Angola,Benguela,Sendje Health Post,Posto de Saúde,MoH,-13.5957,13.8303,Google Earth
197,Angola,Benguela,Sendje Health Post,Posto de Saúde,MoH,-12.6125,13.1859,Other
198,Angola,Benguela,Sibol Health Post,Posto de Saúde,MoH,-12.4474,14.1381,Combination
199,Angola,Benguela,Taka Health Post,Posto de Saúde,MoH,-12.5375,13.4761,Other
200,Angola,Benguela,Tata Health Centre,Centro de Saúde,MoH,-13.0277,14.0089,Other
201,Angola,Benguela,Tchicuma Health Centre,Centro de Saúde,MoH,,,
202,Angola,Benguela,Tchinhungo Health Post,Posto de Saúde,MoH,-13.1758,13.9458,Other
203,Angola,Benguela,Tchitoko Health Post,Posto de Saúde,MoH,-13.7057,13.962,Other
204,Angola,Benguela,Tenda-Moco Health Post,Posto de Saúde,MoH,-12.63,14.5,Other
205,Angola,Benguela,Tola Health Centre,Centro de Saúde,MoH,-12.5464,14.3904,Other
206,Angola,Benguela,Tumbulo Health Post,Posto de Saúde,MoH,-12.8667,14.1333,Other
207,Angola,Benguela,Uchi Health Post,Posto de Saúde,MoH,-12.7225,13.3561,Other
208,Angola,Benguela,Uenge Health Post,Posto de Saúde,MoH,-12.7012,13.1104,Combination
209,Angola,Benguela,Ukende Health Post,Posto de Saúde,MoH,-12.5932,13.4242,Combination
210,Angola,Benguela,Undongo Health Post,Posto de Saúde,MoH,,,
211,Angola,Benguela,Utomba Health Post,Posto de Saúde,MoH,-12.586,13.2657,Combination
212,Angola,Benguela,Vaiva Health Post,Posto de Saúde,MoH,,,
213,Angola,Benguela,Vianja Health Post,Posto de Saúde,MoH,,,
214,Angola,Benguela,Vimala-Passo Health Centre,Centro de Saúde,MoH,-12.8505,13.0643,Other
215,Angola,Benguela,Vimbalambi Health Post,Posto de Saúde,MoH,-12.52,13.5,Other
216,Angola,Benguela,Vinama Health Post,Posto de Saúde,MoH,-13.5775,13.9395,Combination
217,Angola,Benguela,Wiyangombe Health Post,Posto de Saúde,MoH,-13.0368,14.1155,Other
218,Angola,Benguela,Yambala Health Centre,Centro de Saúde,MoH,,,
219,Angola,Bie,Hospital Municipal de Andulo,Municipal Hospital,Govt.,-11.4847,16.6932,Google Earth
220,Angola,Bie,Hospital Municipal de Chinguar,Municipal Hospital,Govt.,-12.5575,16.3379,Google Earth
221,Angola,Bie,Hospital Municipal de Chitembo,Municipal Hospital,Govt.,-13.5082,16.7572,Google Earth
222,Angola,Bie,Hospital Municipal de Kamacupa,Municipal Hospital,Govt.,-12.025,17.4773,Google Earth
223,Angola,Bie,Hospital Municipal de Katabola,Municipal Hospital,Govt.,-12.1415,17.2813,Google Earth
224,Angola,Bie,Hospital Municipal de Kuito,Municipal Hospital,Govt.,-12.3894,16.9201,Google Earth
225,Angola,Bie,Hospital Municipal de Kunhinga,Municipal Hospital,Govt.,-12.2355,16.7821,Google Earth
226,Angola,Bie,Hospital Municipal de Nharea,Municipal Hospital,Govt.,-11.4701,16.9649,Google Earth
227,Angola,Bie,Hospital Provincial de Bie,Provincial Hospital,Govt.,-12.3906,16.9383,Google Earth
228,Angola,Cabinda,Hospital Municipal de Belize,Municipal Hospital,Govt.,-4.6411,12.7613,Google Earth
229,Angola,Cabinda,Hospital Municipal de Bucu-Zau,Municipal Hospital,Govt.,-4.7572,12.5387,Google Earth
230,Angola,Cabinda,Hospital Municipal de Cabinda,Municipal Hospital,Govt.,-5.5601,12.1967,Google Earth
231,Angola,Cabinda,Hospital Municipal de Cacongo,Municipal Hospital,Govt.,-5.2368,12.1456,Google Earth
232,Angola,Cabinda,Hospital Provincial de Cabinda,Provincial Hospital,Govt.,-5.5711,12.1959,Google Earth
233,Angola,Cuanza Norte,Aldeia-Nova Health Post,Posto de Saúde,MoH,-9.2167,14.2455,Other
234,Angola,Cuanza Norte,Aldeia-Nova Health Post,Posto de Saúde,MoH,-8.1782,15.3776,Other
235,Angola,Cuanza Norte,Alto Fina Health Post,Posto de Saúde,MoH,,,
236,Angola,Cuanza Norte,Ambaca Municipal Hospital,Municipal Hospital,Govt.,-8.1833,15.3667,Combination
237,Angola,Cuanza Norte,Banga Health Centre,Centro de Saúde,MoH,-8.7311,15.1703,Other
238,Angola,Cuanza Norte,Bango Health Post,Posto de Saúde,MoH,-8.3068,15.2794,Other
239,Angola,Cuanza Norte,Banza de Banze Health Post,Posto de Saúde,MoH,-9.5699,14.8295,Other
240,Angola,Cuanza Norte,Bengueji Health Post,Posto de Saúde,MoH,-9.0773,15.252,Combination
241,Angola,Cuanza Norte,Bessenguele Health Post,Posto de Saúde,MoH,-8.65,14.98,Other
242,Angola,Cuanza Norte,Bindo Sector Health Post,Posto de Saúde,MoH,-8.15,15.2167,Other
243,Angola,Cuanza Norte,Bolongongo Health Centre,Centro de Saúde,MoH,-8.4657,15.253,Other
244,Angola,Cuanza Norte,Bonzo Health Post,Posto de Saúde,MoH,-8.5654,15.2723,Other
245,Angola,Cuanza Norte,Bungo Health Post,Posto de Saúde,MoH,-9.6902,14.6705,Other
246,Angola,Cuanza Norte,Cabinda Health Post,Posto de Saúde,MoH,-9.15,14.95,Other
247,Angola,Cuanza Norte,Caboco Health Post,Posto de Saúde,MoH,-8.5299,15.0611,Other
248,Angola,Cuanza Norte,Caculo-Cabata Health Post,Posto de Saúde,MoH,-8.307,15.3584,Other
249,Angola,Cuanza Norte,Cafuta Health Post,Posto de Saúde,MoH,-8.9705,14.9598,Other
250,Angola,Cuanza Norte,Camame Health Centre,Centro de Saúde,MoH,-8.9833,14.9833,Other
251,Angola,Cuanza Norte,Camame Health Post,Posto de Saúde,MoH,-8.9867,14.994,Other
252,Angola,Cuanza Norte,Cambambe Municipal Health Centre,Centro de Saúde,MoH,-9.75,14.5,Other
253,Angola,Cuanza Norte,Cambambe Municipal Hospital,Municipal Hospital,Govt.,-9.689,14.424,Other
254,Angola,Cuanza Norte,Cambondo Health Centre,Centro de Saúde,MoH,-9.1667,14.6667,Other
255,Angola,Cuanza Norte,Cana Canjungo Health Post,Posto de Saúde,MoH,-8.166,15.282,Other
256,Angola,Cuanza Norte,Canguenhe Health Post,Posto de Saúde,MoH,-9.5303,14.3156,Other
257,Angola,Cuanza Norte,Canguimbi Health Post,Posto de Saúde,MoH,-8.2359,15.2534,Other
258,Angola,Cuanza Norte,Canhoca Health Post,Posto de Saúde,MoH,-9.1299,14.8529,Other
259,Angola,Cuanza Norte,Canzondo Health Post,Posto de Saúde,MoH,-9.2333,15.05,Other
260,Angola,Cuanza Norte,Cariamba Health Post,Posto de Saúde,MoH,-8.6,15.2,Other
261,Angola,Cuanza Norte,Carianga Health Post,Posto de Saúde,MoH,-9.291,14.9915,Other
262,Angola,Cuanza Norte,Cassoalala Health Post,Posto de Saúde,MoH,-9.4833,14.35,Other
263,Angola,Cuanza Norte,Catamba Health Post,Posto de Saúde,MoH,-9.3,14.7667,Other
264,Angola,Cuanza Norte,Catari II Health Post,Posto de Saúde,MoH,-9.3369,14.9823,Other
265,Angola,Cuanza Norte,Catome de Cima Health Post,Posto de Saúde,MoH,-9.2971,14.9375,Other
266,Angola,Cuanza Norte,Cavunga Health Post,Posto de Saúde,MoH,-8.9201,14.6641,Other
267,Angola,Cuanza Norte,Caxissa Health Post,Posto de Saúde,MoH,-9.5113,14.6863,Other
268,Angola,Cuanza Norte,Cazengo Centro Materno Infantil,Centro Materno Infantil,MoH,-9.3048,14.8997,Other
269,Angola,Cuanza Norte,Cazengo Municipal Hospital,Municipal Hospital,Govt.,-9.3015,14.9156,Google Earth
270,Angola,Cuanza Norte,Cazombo Health Post,Posto de Saúde,MoH,-8.7333,15.3667,Other
271,Angola,Cuanza Norte,Cazua Health Post,Posto de Saúde,MoH,-8.0019,15.25,Other
272,Angola,Cuanza Norte,Cerca Health Post,Posto de Saúde,MoH,-9.067,14.567,Other
273,Angola,Cuanza Norte,Coio Health Post,Posto de Saúde,MoH,-9.0272,15.2828,Other
274,Angola,Cuanza Norte,Cole Health Post,Posto de Saúde,MoH,-8.0731,15.2684,Other
275,Angola,Cuanza Norte,Cupoe Health Post,Posto de Saúde,MoH,-9.3055,14.901,Combination
276,Angola,Cuanza Norte,Dange-Ya-Menha Health Post,Posto de Saúde,MoH,-9.533,14.667,Other
277,Angola,Cuanza Norte,Dr Agostinho Neto Provincial Hospital,Provincial Hospital,Govt.,-9.3017,14.913,Google Earth
278,Angola,Cuanza Norte,Dualumbi Health Post,Posto de Saúde,MoH,-9.1137,15.2338,Other
279,Angola,Cuanza Norte,G-Alto Municipal Hospital,Municipal Hospital,Govt.,-9.1333,14.7667,Other
280,Angola,Cuanza Norte,Golome Health Post,Posto de Saúde,MoH,-9.7303,14.5131,Other
281,Angola,Cuanza Norte,Gonguembo Municipal Hospital,Municipal Hospital,Govt.,-8.9833,14.9333,Other
282,Angola,Cuanza Norte,Hala Health Post,Posto de Saúde,MoH,-9.2086,15.2411,Combination
283,Angola,Cuanza Norte,Hanga Health Post,Posto de Saúde,MoH,-8.4167,15.7167,Other
284,Angola,Cuanza Norte,Helegi Health Post,Posto de Saúde,MoH,-9.2704,15.1507,Combination
285,Angola,Cuanza Norte,Hombo Health Post,Posto de Saúde,MoH,-9.6684,14.6306,Other
286,Angola,Cuanza Norte,Kafuma Health Post,Posto de Saúde,MoH,-9.6776,14.4278,Other
287,Angola,Cuanza Norte,Kahima Health Post,Posto de Saúde,MoH,-8.468,15.6077,Combination
288,Angola,Cuanza Norte,Kandange Health Post,Posto de Saúde,MoH,-9.7426,14.4908,Combination
289,Angola,Cuanza Norte,Kapata Health Post,Posto de Saúde,MoH,-8.4389,15.3671,Other
290,Angola,Cuanza Norte,Kianvo Health Post,Posto de Saúde,MoH,-8.5988,15.3538,Other
291,Angola,Cuanza Norte,Kiboto Health Post,Posto de Saúde,MoH,-8.461,15.251,Encarta
292,Angola,Cuanza Norte,Kigia Health Post,Posto de Saúde,MoH,-9.2705,15.2506,Google Earth
293,Angola,Cuanza Norte,Kilemba Sector do Cuso Health Post,Posto de Saúde,MoH,-8.9491,15.3301,Other
294,Angola,Cuanza Norte,Kilombo Kiaputo Health Post,Posto de Saúde,MoH,-8.9088,14.7276,Other
295,Angola,Cuanza Norte,Kilometro 13 Health Post,Posto de Saúde,MoH,-9.2555,15.0078,Other
296,Angola,Cuanza Norte,Kipata Health Post,Posto de Saúde,MoH,-9.2912,14.9204,Other
297,Angola,Cuanza Norte,Kiquiemba Health Post,Posto de Saúde,MoH,-8.3362,14.912,Other
298,Angola,Cuanza Norte,Kixina Kiatuco Health Post,Posto de Saúde,MoH,,,
299,Angola,Cuanza Norte,Longa Health Post,Posto de Saúde,MoH,-8.2833,15.6333,Other
300,Angola,Cuanza Norte,Lucala Centro Sanaterio,Centro Sanatorio Materno Infantil,MoH,-9.2652,15.2422,Combination
301,Angola,Cuanza Norte,Lucala II Health Post,Posto de Saúde,MoH,-9.2991,14.9302,Other
302,Angola,Cuanza Norte,Lucala Municipal Hospital,Municipal Hospital,Govt.,-9.2663,15.2407,Other
303,Angola,Cuanza Norte,Luinga Health Post,Posto de Saúde,MoH,-8.467,15.6,Other
304,Angola,Cuanza Norte,Maculumbi Health Post,Posto de Saúde,MoH,,,
305,Angola,Cuanza Norte,Malesso Health Post,Posto de Saúde,MoH,-9.1373,14.8436,Other
306,Angola,Cuanza Norte,Manguengue Health Post,Posto de Saúde,MoH,-8.3395,15.2184,Other
307,Angola,Cuanza Norte,Massangano Health Post,Posto de Saúde,MoH,-9.6167,14.2667,Other
308,Angola,Cuanza Norte,Maua Health Post,Posto de Saúde,MoH,-8.2801,15.3156,Other
309,Angola,Cuanza Norte,Mucoso Health Centre,Centro de Saúde,MoH,-9.5379,14.6608,Other
310,Angola,Cuanza Norte,Mululo Health Post,Posto de Saúde,MoH,-9.0889,14.8321,Other
311,Angola,Cuanza Norte,Mussusso Health Post,Posto de Saúde,MoH,-8.8675,15.104,Other
312,Angola,Cuanza Norte,Pedro Quilemba Health Post,Posto de Saúde,MoH,-9.683,14.8,Other
313,Angola,Cuanza Norte,Pimbi Health Post,Posto de Saúde,MoH,-8.417,15.1825,Other
314,Angola,Cuanza Norte,Posto de Saúde da Kalemba,Posto de Saúde,MoH,,,
315,Angola,Cuanza Norte,Povo Longe Health Post,Posto de Saúde,MoH,-7.9941,15.3985,Other
316,Angola,Cuanza Norte,Quibanda Health Post,Posto de Saúde,MoH,-8.5561,15.3365,Other
317,Angola,Cuanza Norte,Quiculungo Municipal Hospital,Municipal Hospital,Govt.,-8.5167,15.3167,Other
318,Angola,Cuanza Norte,Quirima Health Post,Posto de Saúde,MoH,-9.2773,15.0321,Other
319,Angola,Cuanza Norte,Quiringo Health Post,Posto de Saúde,MoH,-9.5833,14.5833,Other
320,Angola,Cuanza Norte,Quissecula Health Post,Posto de Saúde,MoH,-9.4586,15.1766,Other
321,Angola,Cuanza Norte,Samba-Caju Municipal Health Centre,Centro de Saúde,MoH,-8.767,15.417,Other
322,Angola,Cuanza Norte,Samba-Lucala Health Post,Posto de Saúde,MoH,-8.983,15.583,Other
323,Angola,Cuanza Norte,Sassa Health Centre,Centro de Saúde,MoH,-9.3065,14.8993,Other
324,Angola,Cuanza Norte,Saúde Cazengo Municipal Health Centre,Centro de Saúde,MoH,-9.3333,14.7667,Other
325,Angola,Cuanza Norte,Sector de Caculo-Cabata Health Post,Posto de Saúde,MoH,-8.7456,15.2654,Other
326,Angola,Cuanza Norte,Sector do Mussabo Health Post,Posto de Saúde,MoH,-8.6631,15.5575,Other
327,Angola,Cuanza Norte,Sector do Pambos de Sonhe Health Post,Posto de Saúde,MoH,-8.5333,15.4167,Other
328,Angola,Cuanza Norte,Sector do Quidiulo Health Post,Posto de Saúde,MoH,-8.6167,15.3667,Other
329,Angola,Cuanza Norte,Tango Health Post,Posto de Saúde,MoH,-8.1,15.6333,Other
330,Angola,Cuanza Norte,Terreiro Health Post,Posto de Saúde,MoH,-8.4333,15.1,Other
331,Angola,Cuanza Norte,Tita Health Post,Posto de Saúde,MoH,-8.5333,15.2667,Other
332,Angola,Cuanza Norte,Tombe Tombe Health Post,Posto de Saúde,MoH,-9.3046,14.9154,Encarta
333,Angola,Cuanza Norte,Velho Iango Health Post,Posto de Saúde,MoH,-8.9765,14.7123,Other
334,Angola,Cuanza Norte,Zanga Health Post,Posto de Saúde,MoH,-9.2039,14.992,Other
335,Angola,Cuanza Norte,Zavula Health Post,Posto de Saúde,MoH,-9.3167,14.7667,Other
336,Angola,Cuanza Norte,Zenza Itombe Health Post,Posto de Saúde,MoH,-9.2818,14.2201,Other
337,Angola,Cuanza Sul,Aldeamento No. Health Post,Posto de Saúde,MoH,-11.3646,15.1685,Combination
338,Angola,Cuanza Sul,Aldeamento No. Health Post,Posto de Saúde,MoH,-11.352,15.151,Other
339,Angola,Cuanza Sul,Aldeamento No. Health Post,Posto de Saúde,MoH,-11.3043,15.1684,Combination
340,Angola,Cuanza Sul,Aldeamento No. Health Post,Posto de Saúde,MoH,-11.2719,15.0759,Combination
341,Angola,Cuanza Sul,Aldeamento No. Health Post,Posto de Saúde,MoH,-11.2467,15.1388,Combination
342,Angola,Cuanza Sul,Aldeamento No.11 Health Post,Posto de Saúde,MoH,-11.4287,15.0746,Combination
343,Angola,Cuanza Sul,Aldeamento No.7 Health Post,Posto de Saúde,MoH,-11.3966,15.0893,Combination
344,Angola,Cuanza Sul,Alegria Centro Materno Infantil,Centro Materno Infantil,MoH,,,
345,Angola,Cuanza Sul,Aliwaio do Galo Health Post,Posto de Saúde,MoH,-11.3717,14.3322,Other
346,Angola,Cuanza Sul,Ambande Health Post,Posto de Saúde,MoH,-11.739,14.224,Other
347,Angola,Cuanza Sul,Amboim Municipal Hospital,Municipal Hospital,Govt.,-10.7273,13.7561,Google Earth
348,Angola,Cuanza Sul,Amboim Policlfnico Health Centre,Centro de Saúde,MoH,-10.7306,13.7581,Google Earth
349,Angola,Cuanza Sul,Amboiva Health Post,Posto de Saúde,MoH,-11.5267,14.7374,Other
350,Angola,Cuanza Sul,Andulo Ambile Health Post,Posto de Saúde,MoH,-10.7509,14.5553,Other
351,Angola,Cuanza Sul,Aricango Health Post,Posto de Saúde,MoH,-10.858,14.3883,Other
352,Angola,Cuanza Sul,Assaca Health Centre,Centro de Saúde,MoH,,,
353,Angola,Cuanza Sul,Assango 10 Health Centre,Centro de Saúde,MoH,-10.9808,14.4155,Other
354,Angola,Cuanza Sul,Assango 2 Health Post,Posto de Saúde,MoH,-11.1448,14.5242,Other
355,Angola,Cuanza Sul,Atome Health Post,Posto de Saúde,MoH,-11.884,14.5681,Other
356,Angola,Cuanza Sul,Ave Moma Health Post,Posto de Saúde,MoH,-11.4201,14.4196,Other
357,Angola,Cuanza Sul,Bairro Kifuangondo,Posto de Saúde,MoH,-10.7374,14.991,Other
358,Angola,Cuanza Sul,Balaie Health Post,Posto de Saúde,MoH,,,
359,Angola,Cuanza Sul,Bandua Health Post,Posto de Saúde,MoH,-11.85,14.9333,Other
360,Angola,Cuanza Sul,Bango Health Post,Posto de Saúde,MoH,-11.3513,14.2255,Other
361,Angola,Cuanza Sul,Bango Health Post,Posto de Saúde,MoH,-10.8496,14.6484,Other
362,Angola,Cuanza Sul,Banza Futa Health Post,Posto de Saúde,MoH,-11.2023,14.909,Other
363,Angola,Cuanza Sul,Banza-Choa,Posto de Saúde,MoH,-10.952,14.6008,Other
364,Angola,Cuanza Sul,Belo Horizonte Health Post,Posto de Saúde,MoH,-10.744,13.7684,Combination
365,Angola,Cuanza Sul,Benzengulo Health Post,Posto de Saúde,MoH,-11.0489,13.9837,Other
366,Angola,Cuanza Sul,Boa Entrada Regional Hospital,Regional Hospital,Govt.,-10.868,14.3285,Other
367,Angola,Cuanza Sul,Boa Esperanta Centro Materno Infantil,Centro Materno Infantil,MoH,-10.8946,16.0518,Other
368,Angola,Cuanza Sul,Boa Lembranta Health Post,Posto de Saúde,MoH,-10.8759,14.3646,Other
369,Angola,Cuanza Sul,Boa Lembranta Health Post,Posto de Saúde,MoH,,,
370,Angola,Cuanza Sul,Bombo Health Post,Posto de Saúde,MoH,-11.49,14.3369,Other
371,Angola,Cuanza Sul,Botera Health Post,Posto de Saúde,MoH,-11.6125,14.3004,Other
372,Angola,Cuanza Sul,BTu Health Post,Posto de Saúde,MoH,-10.8848,14.3671,Other
373,Angola,Cuanza Sul,Buli Health Post,Posto de Saúde,MoH,,,
374,Angola,Cuanza Sul,Bulumbo Health Post,Posto de Saúde,MoH,-10.6046,16.006,Other
375,Angola,Cuanza Sul,Bungo Health Centre,Centro de Saúde,MoH,-9.8167,14.65,Other
376,Angola,Cuanza Sul,Cabuta Health Post,Posto de Saúde,MoH,-9.8364,14.8701,Other
377,Angola,Cuanza Sul,Cachoeiras Health Post,Posto de Saúde,MoH,-10.99,14.1,Other
378,Angola,Cuanza Sul,Cacombolo Health Post,Posto de Saúde,MoH,-11.0557,14.2164,Other
379,Angola,Cuanza Sul,Cacota Health Post,Posto de Saúde,MoH,,,
380,Angola,Cuanza Sul,Cacula Health Post,Posto de Saúde,MoH,-11.1376,14.4435,Other
381,Angola,Cuanza Sul,Cacumba Luis,Posto de Saúde,MoH,-11.6445,14.2361,Other
382,Angola,Cuanza Sul,Cainja Health Post,Posto de Saúde,MoH,-11.4287,14.2462,Other
383,Angola,Cuanza Sul,Calele Health Post,Posto de Saúde,MoH,-10.414,13.6955,Other
384,Angola,Cuanza Sul,Calunhomo Health Centre,Centro de Saúde,MoH,-10.5035,16.0115,Other
385,Angola,Cuanza Sul,Cambalo Health Post,Posto de Saúde,MoH,-10.9431,13.9487,Other
386,Angola,Cuanza Sul,Cambaw,Posto de Saúde,MoH,-10.0891,15.2153,Other
387,Angola,Cuanza Sul,Candele Health Post,Posto de Saúde,MoH,-10.9121,14.4478,Other
388,Angola,Cuanza Sul,Candumbo Health Post,Posto de Saúde,MoH,-10.7328,13.7728,Other
389,Angola,Cuanza Sul,Cangongolo Health Post,Posto de Saúde,MoH,-11.0002,13.9583,Other
390,Angola,Cuanza Sul,Caninda Nova Health Post,Posto de Saúde,MoH,-11.517,15.3288,Other
391,Angola,Cuanza Sul,Capole Health Post,Posto de Saúde,MoH,-10.5159,14.007,Other
392,Angola,Cuanza Sul,Capolo 1 Health Post,Posto de Saúde,MoH,-11.1945,14.2538,Other
393,Angola,Cuanza Sul,Cariango Health Post,Posto de Saúde,MoH,-10.5797,15.33,Other
394,Angola,Cuanza Sul,Carimba Health Post,Posto de Saúde,MoH,-11.0807,13.864,Other
395,Angola,Cuanza Sul,Casa Branca Health Post,Posto de Saúde,MoH,-11.5385,13.8158,Other
396,Angola,Cuanza Sul,Cassequele Health Post,Posto de Saúde,MoH,-11.9333,15.3,Other
397,Angola,Cuanza Sul,Cassonga Health Post,Posto de Saúde,MoH,-11.0497,14.0008,Other
398,Angola,Cuanza Sul,Cassongue Municipal Hospital,Municipal Hospital,Govt.,-11.8503,15.0518,Other
399,Angola,Cuanza Sul,CassonguT Centro Materno Infantil,Centro Materno Infantil,MoH,-10.5834,14.3485,Combination
400,Angola,Cuanza Sul,Cassoto Health Post,Posto de Saúde,MoH,-11.3543,15.2693,Other
401,Angola,Cuanza Sul,Cassuada Health Centre,Centro de Saúde,MoH,-10.6159,13.9652,Other
402,Angola,Cuanza Sul,Cassussua Health Post,Posto de Saúde,MoH,-10.7419,14.3415,Other
403,Angola,Cuanza Sul,Catanda Health Post,Posto de Saúde,MoH,-11.4086,14.2206,Other
404,Angola,Cuanza Sul,Catandala Centro Materno Infantil,Centro Materno Infantil,MoH,-10.8456,14.3973,Other
405,Angola,Cuanza Sul,Catofe Health Post,Posto de Saúde,MoH,-10.8555,15.054,Other
406,Angola,Cuanza Sul,Cauaca Health Post,Posto de Saúde,MoH,-11.3882,15.067,Other
407,Angola,Cuanza Sul,Cawembe Health Post,Posto de Saúde,MoH,-11.017,14.199,Encarta
408,Angola,Cuanza Sul,Cawila Health Post,Posto de Saúde,MoH,-10.7379,13.776,Other
409,Angola,Cuanza Sul,Cela Municipal Hospital,Municipal Hospital,Govt.,-11.4233,15.1268,Google Earth
410,Angola,Cuanza Sul,Chieke Health Post,Posto de Saúde,MoH,,,
411,Angola,Cuanza Sul,Chilumbo Health Post,Posto de Saúde,MoH,,,
412,Angola,Cuanza Sul,Chimbangua Health Post,Posto de Saúde,MoH,,,
413,Angola,Cuanza Sul,Chinendele Health Post,Posto de Saúde,MoH,-11.4143,14.4821,Other
414,Angola,Cuanza Sul,Chingo Health Centre,Centro de Saúde,MoH,-11.1799,13.8687,Other
415,Angola,Cuanza Sul,Chipaca Health Post,Posto de Saúde,MoH,-11.722,14.1534,Other
416,Angola,Cuanza Sul,Chipury Health Post,Posto de Saúde,MoH,-11.1677,13.8444,Combination
417,Angola,Cuanza Sul,Chol-Chol Health Post,Posto de Saúde,MoH,-10.9477,14.0775,Other
418,Angola,Cuanza Sul,Cipres Centro Materno Infantil,Centro Materno Infantil,MoH,,,
419,Angola,Cuanza Sul,Coma Health Post,Posto de Saúde,MoH,,,
420,Angola,Cuanza Sul,Comandante Valedia Health Centre,Centro de Saúde,MoH,-11.422,15.1258,Other
421,Angola,Cuanza Sul,Conda Municipal Hospital,Municipal Hospital,Govt.,-11.1032,14.3306,Other
422,Angola,Cuanza Sul,CondT Health Centre,Centro de Saúde,MoH,-10.8451,14.6763,Other
423,Angola,Cuanza Sul,Cruzamento Health Post,Posto de Saúde,MoH,-11.8514,15.0457,Google Earth
424,Angola,Cuanza Sul,Cuacra Health Post,Posto de Saúde,MoH,-11.184,14.083,Encarta
425,Angola,Cuanza Sul,Cubal 6 Pontes Health Post,Posto de Saúde,MoH,-11.5009,14.0802,Other
426,Angola,Cuanza Sul,Cumbira 1 Health Post,Posto de Saúde,MoH,-11.2167,14.6,Other
427,Angola,Cuanza Sul,Cunjo Health Post,Posto de Saúde,MoH,-11.1553,14.572,Other
428,Angola,Cuanza Sul,Dende Health Post,Posto de Saúde,MoH,-10.6721,13.8232,Other
429,Angola,Cuanza Sul,Deolinda Rodrigues Centro Materno Infantil,Centro Materno Infantil,MoH,-10.7618,13.752,Other
430,Angola,Cuanza Sul,Dumbo 1 Health Post,Posto de Saúde,MoH,-11.0933,14.3725,Other
431,Angola,Cuanza Sul,Ebo Municipal Hospital,Municipal Hospital,Govt.,-11.0426,14.6977,Other
432,Angola,Cuanza Sul,Estatpo Regional Health Post,Posto de Saúde,MoH,-10.7249,13.7573,Google Earth
433,Angola,Cuanza Sul,Fortuna Centro Materno Infantil,Centro Materno Infantil,MoH,-10.748,13.7683,Other
434,Angola,Cuanza Sul,Gango,Posto de Saúde,MoH,-10.6002,15.8963,Other
435,Angola,Cuanza Sul,Ganja Health Post,Posto de Saúde,MoH,-11.4743,13.82,Encarta
436,Angola,Cuanza Sul,Ganja Health Post,Posto de Saúde,MoH,-11.2833,14.3333,Other
437,Angola,Cuanza Sul,Gonga Health Post,Posto de Saúde,MoH,-11.6189,14.8011,Other
438,Angola,Cuanza Sul,Guarna Health Post,Posto de Saúde,MoH,-10.6943,14.3419,Other
439,Angola,Cuanza Sul,Guendela Health Post,Posto de Saúde,MoH,-11.0741,14.3888,Other
440,Angola,Cuanza Sul,Gungo Health Post,Posto de Saúde,MoH,-11.816,14.1531,Other
441,Angola,Cuanza Sul,Haco Health Post,Posto de Saúde,MoH,-10.1715,15.7147,Other
442,Angola,Cuanza Sul,Hala-Choa,Posto de Saúde,MoH,-11.1005,13.9286,Other
443,Angola,Cuanza Sul,Hala-Choa,Posto de Saúde,MoH,-11.0106,14.6115,Other
444,Angola,Cuanza Sul,Hanga (Cumbira 2) Health Post,Posto de Saúde,MoH,-11.2082,14.3442,Other
445,Angola,Cuanza Sul,Hanga 1 Health Post,Posto de Saúde,MoH,,,
446,Angola,Cuanza Sul,Hogiwa Health Post,Posto de Saúde,MoH,,,
447,Angola,Cuanza Sul,Hospital Geral 17 de Setembro,General Hospital,Govt.,-11.2043,13.8411,Other
448,Angola,Cuanza Sul,Hote Health Post,Posto de Saúde,MoH,-11.1771,14.0248,Encarta
449,Angola,Cuanza Sul,Huande Health Post,Posto de Saúde,MoH,-11.0333,14.3333,Other
450,Angola,Cuanza Sul,Huango 1 Health Post,Posto de Saúde,MoH,-11.1282,14.7665,Other
451,Angola,Cuanza Sul,Ingongolo Health Post,Posto de Saúde,MoH,-11.3576,14.278,Other
452,Angola,Cuanza Sul,Itumbo Health Post,Posto de Saúde,MoH,-11.6233,14.1822,Other
453,Angola,Cuanza Sul,Jombe Health Post,Posto de Saúde,MoH,-11.18,14.13,Other
454,Angola,Cuanza Sul,Kachongono Health Post,Posto de Saúde,MoH,-11.2804,15.1308,Other
455,Angola,Cuanza Sul,Kassapa Health Post,Posto de Saúde,MoH,,,
456,Angola,Cuanza Sul,Kassumba Ex-Dala,Posto de Saúde,MoH,-11.0955,14.5708,Other
457,Angola,Cuanza Sul,Kichocota Health Post,Posto de Saúde,MoH,,,
458,Angola,Cuanza Sul,Kicombo Health Post,Posto de Saúde,MoH,-11.3201,13.8196,Other
459,Angola,Cuanza Sul,Kienha Health Post,Posto de Saúde,MoH,-10.144,15.5958,Other
460,Angola,Cuanza Sul,Kilometro 11 Health Post,Posto de Saúde,MoH,-10.7284,13.8381,Other
461,Angola,Cuanza Sul,Kilometro 28 Health Post,Posto de Saúde,MoH,,,
462,Angola,Cuanza Sul,Kilometro 40 Health Post,Posto de Saúde,MoH,-10.691,14.0816,Other
463,Angola,Cuanza Sul,Kilometro 40 Health Post,Posto de Saúde,MoH,-10.1996,16.1404,Other
464,Angola,Cuanza Sul,Kilunda Health Post,Posto de Saúde,MoH,,,
465,Angola,Cuanza Sul,Kipungo Health Post,Posto de Saúde,MoH,-11.1522,14.6956,Other
466,Angola,Cuanza Sul,Kissanga (Sanga) Health Post,Posto de Saúde,MoH,-11.0062,14.9543,Other
467,Angola,Cuanza Sul,Kissanga Kungo Health Post,Posto de Saúde,MoH,-11.4217,15.1281,Other
468,Angola,Cuanza Sul,Kissange Health Post,Posto de Saúde,MoH,-11.3712,14.9001,Other
469,Angola,Cuanza Sul,Kissobe,Posto de Saúde,MoH,-11.148,14.8668,Other
470,Angola,Cuanza Sul,Kissongo Health Post,Posto de Saúde,MoH,-10.0319,15.086,Other
471,Angola,Cuanza Sul,Lambingo,Posto de Saúde,MoH,-11.0503,15.2799,Other
472,Angola,Cuanza Sul,Libolo Municipal Hospital,Municipal Hospital,Govt.,-10.0032,14.8959,Google Earth
473,Angola,Cuanza Sul,Longolo Health Post,Posto de Saúde,MoH,-10.1842,14.9601,Other
474,Angola,Cuanza Sul,Lonhe Health Post,Posto de Saúde,MoH,-10.8159,15.553,Other
475,Angola,Cuanza Sul,Lowa Health Post,Posto de Saúde,MoH,-10.5541,15.9514,Other
476,Angola,Cuanza Sul,Lussusso Health Post,Posto de Saúde,MoH,-10.1987,14.8079,Other
477,Angola,Cuanza Sul,Mangue Health Post,Posto de Saúde,MoH,-11.2711,14.793,Other
478,Angola,Cuanza Sul,Maria Agusta Health Post,Posto de Saúde,MoH,-10.9248,14.3489,Other
479,Angola,Cuanza Sul,Maria Helena Health Post,Posto de Saúde,MoH,,,
480,Angola,Cuanza Sul,Maria Teresa Health Post,Posto de Saúde,MoH,-11.1077,14.3355,Other
481,Angola,Cuanza Sul,Menga Health Centre,Centro de Saúde,MoH,-11.7167,15.35,Other
482,Angola,Cuanza Sul,Minga Health Post,Posto de Saúde,MoH,-11.1051,14.2872,Other
483,Angola,Cuanza Sul,Misspo Health Post,Posto de Saúde,MoH,-10.7392,14.9793,Google Earth
484,Angola,Cuanza Sul,Moma da Banze Health Post,Posto de Saúde,MoH,-11.3897,14.4347,Other
485,Angola,Cuanza Sul,Moma da Fonseca Health Post,Posto de Saúde,MoH,-11.528,14.4278,Other
486,Angola,Cuanza Sul,Muhiliz Health Post,Posto de Saúde,MoH,-10.5712,16.1163,Other
487,Angola,Cuanza Sul,Munenga Health Post,Posto de Saúde,MoH,-10.0319,14.6361,Other
488,Angola,Cuanza Sul,Mungo,Posto de Saúde,MoH,-9.9939,14.8958,Other
489,Angola,Cuanza Sul,Muonha Health Post,Posto de Saúde,MoH,-11.1135,15.1431,Other
490,Angola,Cuanza Sul,Muquitixe Health Post,Posto de Saúde,MoH,-10.4203,14.9604,Other
491,Angola,Cuanza Sul,Mussende Centro Materno Infantil,Centro Materno Infantil,MoH,-10.942,16.1187,Combination
492,Angola,Cuanza Sul,Mussende Health Post,Posto de Saúde,MoH,-10.5055,16.0138,Other
493,Angola,Cuanza Sul,Mussende Municipal Hospital,Municipal Hospital,Govt.,-10.5175,16.0112,Other
494,Angola,Cuanza Sul,Ndala-Cachibo,Posto de Saúde,MoH,-10.4732,14.6539,Other
495,Angola,Cuanza Sul,Ngangula Health Centre,Centro de Saúde,MoH,-10.9904,13.9307,Other
496,Angola,Cuanza Sul,Ngola Lombo Health Post,Posto de Saúde,MoH,-10.3002,13.6444,Other
497,Angola,Cuanza Sul,Ngola Mussungo Health Post,Posto de Saúde,MoH,-10.79,13.7732,Other
498,Angola,Cuanza Sul,Nhime Health Post,Posto de Saúde,MoH,-11.2167,14.2333,Other
499,Angola,Cuanza Sul,Njanta Health Post,Posto de Saúde,MoH,,,
500,Angola,Cuanza Sul,Pambangala Health Post,Posto de Saúde,MoH,-11.7072,15.2524,Other
501,Angola,Cuanza Sul,Panda Health Post,Posto de Saúde,MoH,-10.9076,13.8782,Other
502,Angola,Cuanza Sul,Pedra 1 Health Centre,Centro de Saúde,MoH,-11.2167,13.8583,Other
503,Angola,Cuanza Sul,Pedra Escrita Health Post,Posto de Saúde,MoH,-10.1623,14.7543,Other
504,Angola,Cuanza Sul,Pedra Preciosa Centro Materno Infantil,Centro Materno Infantil,MoH,-11.2101,13.8603,Other
505,Angola,Cuanza Sul,Pinda Health Centre,Centro de Saúde,MoH,-10.8209,13.8416,Other
506,Angola,Cuanza Sul,Pindo Health Post,Posto de Saúde,MoH,-11.1982,13.8703,Other
507,Angola,Cuanza Sul,Pomba Nova Health Post,Posto de Saúde,MoH,-11.239,13.8823,Other
508,Angola,Cuanza Sul,Ponte Santo Health Post,Posto de Saúde,MoH,-11.4039,14.3085,Combination
509,Angola,Cuanza Sul,Porto Amboim Municipal Hospital,Municipal Hospital,Govt.,-10.7283,13.7656,Other
510,Angola,Cuanza Sul,Praia Health Post,Posto de Saúde,MoH,-11.1831,13.865,Other
511,Angola,Cuanza Sul,Quibala Municipal Hospital,Municipal Hospital,Govt.,-10.7366,14.9794,Other
512,Angola,Cuanza Sul,Quilenda Municipal Hospital,Municipal Hospital,Govt.,-10.6405,14.3372,Other
513,Angola,Cuanza Sul,Quimone,Posto de Saúde,MoH,-10.624,14.9562,Other
514,Angola,Cuanza Sul,Quina (Capango) Health Post,Posto de Saúde,MoH,-10.8263,14.4108,Other
515,Angola,Cuanza Sul,Quipito Health Post,Posto de Saúde,MoH,-11.2548,14.1615,Other
516,Angola,Cuanza Sul,Quirimbo Health Post,Posto de Saúde,MoH,-10.6778,14.262,Other
517,Angola,Cuanza Sul,Quitundo Tongo Health Post,Posto de Saúde,MoH,-11.3343,15.2269,Other
518,Angola,Cuanza Sul,Sacriffcio Centro Materno Infantil,Centro Materno Infantil,MoH,,,
519,Angola,Cuanza Sul,Salina Health Post,Posto de Saúde,MoH,-10.8996,14.256,Other
520,Angola,Cuanza Sul,Salinas Health Post,Posto de Saúde,MoH,-11.2395,13.8795,Other
521,Angola,Cuanza Sul,Salvador Health Post,Posto de Saúde,MoH,-10.5966,16.0491,Other
522,Angola,Cuanza Sul,Sanga Health Post,Posto de Saúde,MoH,-11.136,15.4169,Other
523,Angola,Cuanza Sul,Santa Cruz Health Centre,Centro de Saúde,MoH,-11.1943,13.8528,Other
524,Angola,Cuanza Sul,Santo Agostinho Health Post,Posto de Saúde,MoH,-10.7994,16.0971,Other
525,Angola,Cuanza Sul,Sede Centro Materno Infantil,Centro Materno Infantil,MoH,-11.4224,15.1262,Combination
526,Angola,Cuanza Sul,Sede Health Centre,Centro de Saúde,MoH,-11.3932,14.3802,Other
527,Angola,Cuanza Sul,Sede Health Centre,Centro de Saúde,MoH,-11.2049,13.8404,Combination
528,Angola,Cuanza Sul,Sede Health Centre,Centro de Saúde,MoH,-10.7328,14.9783,Google Earth
529,Angola,Cuanza Sul,Sede Health Centre,Centro de Saúde,MoH,-10.7318,13.7549,Google Earth
530,Angola,Cuanza Sul,Sede Health Centre,Centro de Saúde,MoH,-10.504,14.0332,Other
531,Angola,Cuanza Sul,Sede Health Centre,Centro de Saúde,MoH,-10.0016,14.8959,Google Earth
532,Angola,Cuanza Sul,Seles Municipal Hospital,Municipal Hospital,Govt.,-11.4077,14.3047,Google Earth
533,Angola,Cuanza Sul,Spo Lucas Health Post,Posto de Saúde,MoH,-10.9425,16.1212,Other
534,Angola,Cuanza Sul,Spo Lucas Health Post,Posto de Saúde,MoH,-10.4412,14.4442,Combination
535,Angola,Cuanza Sul,St. Antenio Health Centre,Centro de Saúde,MoH,-11.7461,14.864,Other
536,Angola,Cuanza Sul,Sumbe Municipal Hospital,Municipal Hospital,Govt.,-11.1882,13.8576,Other
537,Angola,Cuanza Sul,Sumbe Policlfnico Health Centre,Centro de Saúde,MoH,-11.2045,13.8401,Google Earth
538,Angola,Cuanza Sul,Tari-Quicanzo,Posto de Saúde,MoH,-10.6796,14.7631,Other
539,Angola,Cuanza Sul,Tchitonde Health Post,Posto de Saúde,MoH,-11.7683,14.1222,Other
540,Angola,Cuanza Sul,Tenge Health Post,Posto de Saúde,MoH,-11.268,14.9415,Other
541,Angola,Cuanza Sul,Torre Quijiba Health Post,Posto de Saúde,MoH,-10.6834,14.1458,Other
542,Angola,Cuanza Sul,Tranganda,Posto de Saúde,MoH,-10.7639,14.8245,Other
543,Angola,Cuanza Sul,Ussuambanda Health Post,Posto de Saúde,MoH,,,
544,Angola,Cuanza Sul,Valedia Health Post,Posto de Saúde,MoH,-11.0579,14.3327,Other
545,Angola,Cuanza Sul,Vida Abundante Centro Materno Infantil,Centro Materno Infantil,MoH,-10.6699,13.8589,Other
546,Angola,Cuanza Sul,Wake Health Post,Posto de Saúde,MoH,-11.4086,14.3007,Combination
547,Angola,Cuanza Sul,Xariaia Health Post,Posto de Saúde,MoH,-10.7058,14.4972,Other
548,Angola,Cuanza Sul,Zambia Health Post,Posto de Saúde,MoH,-10.93,14.1763,Other
549,Angola,Cuanza Sul,Zeufor Centro Materno Infantil,Centro Materno Infantil,MoH,-10.7318,13.7533,Combination
550,Angola,Cunene,Caham Hospital,Hospital,Govt.,-16.2828,14.3053,Combination
551,Angola,Cunene,Chiulo Hospital,Hospital,Govt.,-16.5324,14.8682,Google Earth
552,Angola,Cunene,Cunene Provincial Hospital,Provincial Hospital,Govt.,-17.0684,15.723,GPS
553,Angola,Cunene,Curoca Hospital,Hospital,Govt.,-16.6567,13.4237,Combination
554,Angola,Cunene,Cuvelai Hospital,Hospital,Govt.,-15.6648,15.8025,GPS
555,Angola,Cunene,Mercado Municipal Hospital,Municipal Hospital,Govt.,-16.7448,14.9715,GPS
556,Angola,Cunene,Namacunde Hospital,Hospital,Govt.,-17.3076,15.8442,GPS
557,Angola,Cunene,Oncocua Hospital,Hospital,Govt.,-16.6559,13.4298,Other
558,Angola,Huambo,Alto Calai Health Post,Posto de Saúde,MoH,-12.8503,15.551,Google Earth
559,Angola,Huambo,Alto Chiumbo Health Post,Posto de Saúde,MoH,-12.3752,16.1547,Other
560,Angola,Huambo,Alto Hama Municipal Hospital,Municipal Hospital,Govt.,-12.2214,15.5511,Google Earth
561,Angola,Huambo,Antenio Health Centre,Centro de Saúde,MoH,-12.8016,15.8889,Other
562,Angola,Huambo,Atuco Health Post,Posto de Saúde,MoH,-12.3867,15.7077,Other
563,Angola,Huambo,Bailundo Hospital,Hospital,Govt.,-12.199,15.8701,Other
564,Angola,Huambo,Bata Health Centre,Centro de Saúde,MoH,-11.7097,16.0689,Combination
565,Angola,Huambo,Bave Health Centre,Centro de Saúde,MoH,-12.6339,16.0462,Google Earth
566,Angola,Huambo,BelTm do Huambo Health Post,Posto de Saúde,MoH,-12.8038,15.6433,Other
567,Angola,Huambo,Benfica Alto Health Centre,Centro de Saúde,MoH,-12.7422,15.7469,Other
568,Angola,Huambo,Benfica Baixo Health Centre,Centro de Saúde,MoH,-12.7545,15.7459,Other
569,Angola,Huambo,Bimbe Health Centre,Centro de Saúde,MoH,-11.8201,15.8307,Other
570,Angola,Huambo,Boas -guas Health Post,Posto de Saúde,MoH,-12.7,16.0333,Other
571,Angola,Huambo,Bomba Alta Centro Materno Infantil,Centro Materno Infantil,MoH,-12.7731,15.722,Other
572,Angola,Huambo,Bonga Health Post,Posto de Saúde,MoH,-12.3,15.6167,Other
573,Angola,Huambo,Bongo Health Post,Posto de Saúde,MoH,-12.9923,15.3417,Other
574,Angola,Huambo,Caala Health Centre,Centro de Saúde,MoH,-12.84,15.52,Other
575,Angola,Huambo,Caala Municipal Hospital,Municipal Hospital,Govt.,-12.8514,15.5558,Other
576,Angola,Huambo,Cachaca Health Post,Posto de Saúde,MoH,-12.45,15.75,Other
577,Angola,Huambo,Cachilengue Health Post,Posto de Saúde,MoH,-12.6329,16.2744,Other
578,Angola,Huambo,Cachiungo Centro Materno Infantil,Centro Materno Infantil,MoH,-12.562,16.219,Encarta
579,Angola,Huambo,Cachiungo Municipal Hospital,Municipal Hospital,Govt.,-13.1,16.4333,Other
580,Angola,Huambo,Cacilhas Health Centre,Centro de Saúde,MoH,-12.7795,15.7663,Other
581,Angola,Huambo,Cacoma Health Centre,Centro de Saúde,MoH,-12.5924,15.2101,Other
582,Angola,Huambo,Cacucu Health Post,Posto de Saúde,MoH,-12.8591,15.068,Google Earth
583,Angola,Huambo,Cahululo Health Post,Posto de Saúde,MoH,-12.8178,15.7017,Other
584,Angola,Huambo,Calandula Health Post,Posto de Saúde,MoH,-12.8289,15.8856,Other
585,Angola,Huambo,Calei Cuchila Health Post,Posto de Saúde,MoH,-12.6946,15.605,Other
586,Angola,Huambo,Calenga Health Centre,Centro de Saúde,MoH,-12.8458,15.4708,Other
587,Angola,Huambo,Calenga Jolo Health Post,Posto de Saúde,MoH,-12.938,15.3316,Other
588,Angola,Huambo,Caliamamo Health Post,Posto de Saúde,MoH,-12.667,15.449,Encarta
589,Angola,Huambo,Calicoque Health Post,Posto de Saúde,MoH,-12.722,15.6689,Other
590,Angola,Huambo,Calilongue Health Post,Posto de Saúde,MoH,-12.5746,15.3115,Other
591,Angola,Huambo,Calima Health Centre,Centro de Saúde,MoH,-12.8813,15.8189,Other
592,Angola,Huambo,Calomanda Health Post,Posto de Saúde,MoH,-12.7741,15.7235,Other
593,Angola,Huambo,Calombeu Health Post,Posto de Saúde,MoH,-11.8167,15.6,Other
594,Angola,Huambo,Calueyo Health Post,Posto de Saúde,MoH,-13.3255,16.0168,Other
595,Angola,Huambo,Calueyo Health Post,Posto de Saúde,MoH,-12.9333,15.6333,Other
596,Angola,Huambo,Calueyo Health Post,Posto de Saúde,MoH,-12.6633,15.7816,Other
597,Angola,Huambo,Calulo-Hengue Health Centre,Centro de Saúde,MoH,-11.65,15.65,Other
598,Angola,Huambo,Calunda Health Post,Posto de Saúde,MoH,-12.5004,16.029,Other
599,Angola,Huambo,Cambia Health Post,Posto de Saúde,MoH,-12.4833,15.4,Other
600,Angola,Huambo,Cambuengo Health Centre,Centro de Saúde,MoH,-11.7077,16.0741,Other
601,Angola,Huambo,Cambuio Baixo Health Post,Posto de Saúde,MoH,-12.7,15.9167,Other
602,Angola,Huambo,Caminho de Ferro de Benguela Hospital,Hospital,Govt.,-12.7702,15.7372,Other
603,Angola,Huambo,Candandi Health Post,Posto de Saúde,MoH,-12.096,15.7651,Other
604,Angola,Huambo,Candingo Health Post,Posto de Saúde,MoH,-12.7417,15.4721,Other
605,Angola,Huambo,Candumbo Health Post,Posto de Saúde,MoH,-12.436,15.8839,Combination
606,Angola,Huambo,Cangombe Health Post,Posto de Saúde,MoH,-12.825,16.1165,Other
607,Angola,Huambo,Cangombe Health Post,Posto de Saúde,MoH,-12.439,15.6555,Other
608,Angola,Huambo,Cantpo Paula Health Post,Posto de Saúde,MoH,-12.8559,15.555,Google Earth
609,Angola,Huambo,Capalacassa Health Post,Posto de Saúde,MoH,-12.8386,14.8616,Other
610,Angola,Huambo,Capango Health Post,Posto de Saúde,MoH,-12.8833,15.9333,Other
611,Angola,Huambo,Capigala Health Post,Posto de Saúde,MoH,-12.8539,15.918,Other
612,Angola,Huambo,Capunje Health Post,Posto de Saúde,MoH,-12.9378,15.4703,Other
613,Angola,Huambo,Caputo Health Post,Posto de Saúde,MoH,-12.3667,15.8833,Other
614,Angola,Huambo,Cassema Health Post,Posto de Saúde,MoH,-12.9725,15.7715,Other
615,Angola,Huambo,Cassenje Health Post,Posto de Saúde,MoH,-12.0833,16.4,Other
616,Angola,Huambo,Casseque III Health Centre,Centro de Saúde,MoH,-12.9966,15.9266,Other
617,Angola,Huambo,Cassoco Health Post,Posto de Saúde,MoH,-12.8817,15.5213,Other
618,Angola,Huambo,Cassuculo Health Post,Posto de Saúde,MoH,-12.7176,15.8371,Other
619,Angola,Huambo,Cassupi Health Post,Posto de Saúde,MoH,-12.9896,15.4545,Other
620,Angola,Huambo,Catabola Health Centre,Centro de Saúde,MoH,-13.1167,15.1667,Other
621,Angola,Huambo,Catanda Health Post,Posto de Saúde,MoH,-12.6667,15.0333,Other
622,Angola,Huambo,Catata Health Centre,Centro de Saúde,MoH,-13.4,15.417,Other
623,Angola,Huambo,Catete Health Post,Posto de Saúde,MoH,-12.5316,15.8976,Other
624,Angola,Huambo,Catuta Health Post,Posto de Saúde,MoH,-12.1912,15.7123,Other
625,Angola,Huambo,Cavili Health Post,Posto de Saúde,MoH,,,
626,Angola,Huambo,Cavinda Health Post,Posto de Saúde,MoH,-13.1144,15.8287,Other
627,Angola,Huambo,Cavongue Health Centre,Centro de Saúde,MoH,-12.7079,15.6054,Other
628,Angola,Huambo,Cayumbuca Health Post,Posto de Saúde,MoH,-11.9354,16.4167,Other
629,Angola,Huambo,Chaliwewa Health Post,Posto de Saúde,MoH,-12.24,15.313,Encarta
630,Angola,Huambo,Changuir Health Post,Posto de Saúde,MoH,-12.3647,15.7747,Combination
631,Angola,Huambo,Chenga Health Post,Posto de Saúde,MoH,-12.8667,15.1333,Other
632,Angola,Huambo,Chiaca Health Centre,Centro de Saúde,MoH,-12.6325,14.9949,Other
633,Angola,Huambo,Chianga Health Centre,Centro de Saúde,MoH,-12.5081,15.6692,Other
634,Angola,Huambo,Chicala Centro Materno Infantil,Centro Materno Infantil,MoH,,,
635,Angola,Huambo,Chicala Cholohanga Municipal Hospital,Municipal Hospital,Govt.,-12.4333,15.9,Other
636,Angola,Huambo,Chicoco Health Post,Posto de Saúde,MoH,-12.95,14.8833,Other
637,Angola,Huambo,Chilata Health Centre,Centro de Saúde,MoH,-12.9,15.25,Encarta
638,Angola,Huambo,Chilembo Health Post,Posto de Saúde,MoH,-13.0717,15.801,Other
639,Angola,Huambo,Chilongo Health Post,Posto de Saúde,MoH,-12.7888,15.7618,Combination
640,Angola,Huambo,Chingolo Health Post,Posto de Saúde,MoH,-12.0574,15.7549,Other
641,Angola,Huambo,Chinhala Health Post,Posto de Saúde,MoH,-12.1167,15.6333,Other
642,Angola,Huambo,Chinhama Health Centre,Centro de Saúde,MoH,-13.1014,16.4297,Other
643,Angola,Huambo,Chinjenje Health Centre,Centro de Saúde,MoH,-12.826,14.9313,Other
644,Angola,Huambo,Chinjenje Health CentreMI,Centro Sanatorio Materno Infantil,MoH,,,
645,Angola,Huambo,Chipipa Health Centre,Centro de Saúde,MoH,-12.5664,15.7425,Other
646,Angola,Huambo,Chitatamela Health Post,Posto de Saúde,MoH,-12.3667,15.6333,Other
647,Angola,Huambo,Chiteta Health Post,Posto de Saúde,MoH,-12.0167,15.8,Other
648,Angola,Huambo,Chitue Health Post,Posto de Saúde,MoH,-12.6912,15.5692,Other
649,Angola,Huambo,Chituno Health Post,Posto de Saúde,MoH,-11.7667,15.7833,Other
650,Angola,Huambo,Chiumbo Health Centre,Centro de Saúde,MoH,-12.4833,16.1167,Other
651,Angola,Huambo,Chiva Health Centre,Centro de Saúde,MoH,-12.7336,15.7941,Other
652,Angola,Huambo,Chorindi Health Post,Posto de Saúde,MoH,-11.7052,16.0615,Google Earth
653,Angola,Huambo,Correia Humbi Health Post,Posto de Saúde,MoH,-12.2833,15.4833,Other
654,Angola,Huambo,Cruzeiro Health Post,Posto de Saúde,MoH,-12.7916,15.8871,Other
655,Angola,Huambo,Cuando Health Post,Posto de Saúde,MoH,-13.1537,15.7682,Other
656,Angola,Huambo,Cuima Health Centre,Centro de Saúde,MoH,-13.25,15.65,Other
657,Angola,Huambo,Cumbila Health Centre,Centro de Saúde,MoH,-12.1833,15.1333,Other
658,Angola,Huambo,Cuqueta Health Post,Posto de Saúde,MoH,-12.2771,15.2278,Other
659,Angola,Huambo,Damasco Health Post,Posto de Saúde,MoH,-11.7534,16.1467,Other
660,Angola,Huambo,Dango Health Post,Posto de Saúde,MoH,-12.8093,15.6782,Other
661,Angola,Huambo,Dondi Health Post,Posto de Saúde,MoH,-12.7546,16.4623,Other
662,Angola,Huambo,Dondo Health Post,Posto de Saúde,MoH,-12.6126,15.7575,Other
663,Angola,Huambo,Dongua Health Post,Posto de Saúde,MoH,-12.8753,15.5866,Other
664,Angola,Huambo,Dungo Health Post,Posto de Saúde,MoH,-12.8508,15.0663,Other
665,Angola,Huambo,Ecunha Health Centre,Centro de Saúde,MoH,-12.6819,15.5067,Other
666,Angola,Huambo,Ecunha Health CentreMI,Centro Sanatorio Materno Infantil,MoH,-12.6801,15.5101,Other
667,Angola,Huambo,Elende Health Post,Posto de Saúde,MoH,-12.7285,15.1441,Other
668,Angola,Huambo,Emanha Health Post,Posto de Saúde,MoH,-13.0382,15.2089,Other
669,Angola,Huambo,Essaque Health Post,Posto de Saúde,MoH,-12.7261,15.9805,Fallingrain
670,Angola,Huambo,Etalangala Health Post,Posto de Saúde,MoH,-12.817,14.933,Other
671,Angola,Huambo,Fatima Health Post,Posto de Saúde,MoH,-12.7988,15.7552,Other
672,Angola,Huambo,Funileiros Health Post,Posto de Saúde,MoH,-12.7915,15.7427,Google Earth
673,Angola,Huambo,Galanga Health Centre,Centro de Saúde,MoH,-12.0667,15.1333,Other
674,Angola,Huambo,Ganda Health Post,Posto de Saúde,MoH,-11.5167,15.8,Other
675,Angola,Huambo,Gandarinha Health Post,Posto de Saúde,MoH,-11.9167,16.1167,Other
676,Angola,Huambo,Golongo Health Post,Posto de Saúde,MoH,-12.2084,15.8514,Encarta
677,Angola,Huambo,Gove Health Centre,Centro de Saúde,MoH,-12.8608,15.5939,Other
678,Angola,Huambo,Gumba Health Post,Posto de Saúde,MoH,-11.6662,15.3882,Other
679,Angola,Huambo,Hanga Health Post,Posto de Saúde,MoH,-12.1589,15.9129,Other
680,Angola,Huambo,Huambo Hospital,Central Hospital,Govt.,-12.7661,15.7361,Other
681,Angola,Huambo,Huambo Sanitorio Hospital,Hospital,Govt.,-12.7888,15.7375,Other
682,Angola,Huambo,Jamba Health Post,Posto de Saúde,MoH,-12.0833,15.9667,Other
683,Angola,Huambo,Jimbo Health Post,Posto de Saúde,MoH,-13.517,15.613,Other
684,Angola,Huambo,Jongolo Health Post,Posto de Saúde,MoH,-12.882,15.815,Encarta
685,Angola,Huambo,Jopo Health Centre,Centro de Saúde,MoH,-12.5598,15.7851,Combination
686,Angola,Huambo,JosT Health Post,Posto de Saúde,MoH,-12.766,15.7773,Other
687,Angola,Huambo,Kilombo Health Post,Posto de Saúde,MoH,-12.8514,15.8192,Other
688,Angola,Huambo,Kilometro 25 Health Post,Posto de Saúde,MoH,-12.8938,15.5896,Google Earth
689,Angola,Huambo,Lepi Health Centre,Centro de Saúde,MoH,-12.8737,15.3976,Other
690,Angola,Huambo,Londuimbali Health Centre,Centro de Saúde,MoH,-12.249,15.3201,Other
691,Angola,Huambo,Londuimbali Health Centre,Centro de Saúde,MoH,-12.2454,15.3117,Combination
692,Angola,Huambo,Longonjo Health Centre,Centro de Saúde,MoH,-12.9004,15.2454,Other
693,Angola,Huambo,Longonjo Municipal Hospital,Municipal Hospital,Govt.,-12.8991,15.2531,Other
694,Angola,Huambo,Lossole Health Post,Posto de Saúde,MoH,-13.0174,14.9267,Other
695,Angola,Huambo,Lufefena Health Post,Posto de Saúde,MoH,-12.7694,15.685,Other
696,Angola,Huambo,Lunge Health Centre,Centro de Saúde,MoH,-12.211,16.1117,Other
697,Angola,Huambo,Luvemba Health Centre,Centro de Saúde,MoH,-12.016,15.6031,Other
698,Angola,Huambo,Luvili Health Post,Posto de Saúde,MoH,-12.7528,16.0256,Other
699,Angola,Huambo,Luvili Health Post,Posto de Saúde,MoH,-12.125,15.439,Google Earth
700,Angola,Huambo,M.C. Camunda Health Post,Posto de Saúde,MoH,-13.326,15.5693,Other
701,Angola,Huambo,Macolo Health Centre,Centro de Saúde,MoH,,,
702,Angola,Huambo,Malanga Health Post,Posto de Saúde,MoH,-12.9734,15.9464,Other
703,Angola,Huambo,Mande Health Post,Posto de Saúde,MoH,-12.5137,15.6404,Other
704,Angola,Huambo,Mangumbala Health Post,Posto de Saúde,MoH,-12.8645,15.5657,Google Earth
705,Angola,Huambo,Mbungue Health Post,Posto de Saúde,MoH,-12.9067,15.2533,Other
706,Angola,Huambo,Missassa Health Post,Posto de Saúde,MoH,-12.7911,15.0793,Other
707,Angola,Huambo,Monte Belo Health Post,Posto de Saúde,MoH,-12.1945,15.8576,Other
708,Angola,Huambo,Muangunja Health Post,Posto de Saúde,MoH,-12.8164,15.5522,Other
709,Angola,Huambo,Munda Paiva Health Post,Posto de Saúde,MoH,-12.7494,15.7072,Other
710,Angola,Huambo,Mundundu Health Centre,Centro de Saúde,MoH,-13.0203,15.0752,Other
711,Angola,Huambo,Mungo Centro Materno Infantil,Centro Materno Infantil,MoH,-11.8354,16.2332,Other
712,Angola,Huambo,Mungo Municipal Hospital,Municipal Hospital,Govt.,-11.832,16.236,Other
713,Angola,Huambo,Ndele Health Post,Posto de Saúde,MoH,-13.1792,16.251,Other
714,Angola,Huambo,Ngongoinga Health Post,Posto de Saúde,MoH,-12.8961,15.7395,Other
715,Angola,Huambo,Nguelengue Health Post,Posto de Saúde,MoH,-13.3906,15.7106,Other
716,Angola,Huambo,Ngulawa Health Post,Posto de Saúde,MoH,-12.7663,15.7387,Google Earth
717,Angola,Huambo,Nondolo Health Post,Posto de Saúde,MoH,,,
718,Angola,Huambo,Ombala Bule Health Post,Posto de Saúde,MoH,-12.4293,15.8207,Other
719,Angola,Huambo,Ombala Calembe Health Post,Posto de Saúde,MoH,-13.2997,16.246,Other
720,Angola,Huambo,Ombala Canjuca,Posto de Saúde,MoH,-12.284,15.385,Encarta
721,Angola,Huambo,Ombala Caputo Health Post,Posto de Saúde,MoH,-12.8413,15.917,Other
722,Angola,Huambo,Ombala Moma Health Post,Posto de Saúde,MoH,-12.7546,16.4381,Other
723,Angola,Huambo,Ombala Moma Health Post,Posto de Saúde,MoH,-11.7105,16.0692,Google Earth
724,Angola,Huambo,Ombala Sambo Health Post,Posto de Saúde,MoH,-13.0655,16.1212,Other
725,Angola,Huambo,Pedro Health Centre,Centro de Saúde,MoH,-12.8941,15.7967,Other
726,Angola,Huambo,Petroleo Health Post,Posto de Saúde,MoH,-12.7276,15.6076,Other
727,Angola,Huambo,Quipeio Health Centre,Centro de Saúde,MoH,-12.6951,15.5651,Other
728,Angola,Huambo,Regedoria Health Post,Posto de Saúde,MoH,-12.6789,15.5056,Fallingrain
729,Angola,Huambo,Sacalage Health Post,Posto de Saúde,MoH,-12.3016,15.6855,Other
730,Angola,Huambo,Sacaliga Health Post,Posto de Saúde,MoH,-12.8611,15.594,Google Earth
731,Angola,Huambo,Sacambuiyo Health Post,Posto de Saúde,MoH,-12.6289,16.0498,Google Earth
732,Angola,Huambo,Sacanombo Health Post,Posto de Saúde,MoH,-13.0109,15.5747,Other
733,Angola,Huambo,Sachitemo Health Post,Posto de Saúde,MoH,-12.9833,16.0,Other
734,Angola,Huambo,Sambalundo Health Post,Posto de Saúde,MoH,-12.5644,15.5428,Other
735,Angola,Huambo,Sambo Centro Materno Infantil,Centro Materno Infantil,MoH,-13.0588,16.1205,Other
736,Angola,Huambo,Sambo Health Centre,Centro de Saúde,MoH,-13.05,16.1333,Other
737,Angola,Huambo,Samboto Health Centre,Centro de Saúde,MoH,-12.4117,15.8361,Other
738,Angola,Huambo,Sambunjo Health Post,Posto de Saúde,MoH,-12.82,14.9937,Other
739,Angola,Huambo,Sandombo Health Post,Posto de Saúde,MoH,-13.0794,15.3929,Other
740,Angola,Huambo,Sanjepele Health Post,Posto de Saúde,MoH,-12.6887,15.6747,Other
741,Angola,Huambo,Santo Amaro Health Post,Posto de Saúde,MoH,-12.7146,15.8667,Other
742,Angola,Huambo,Savitangayala Health Post,Posto de Saúde,MoH,-12.7531,16.4027,Other
743,Angola,Huambo,Sipiti Health Post,Posto de Saúde,MoH,-12.9644,15.5658,Other
744,Angola,Huambo,Somanjamba Health Post,Posto de Saúde,MoH,-12.2618,15.3143,Other
745,Angola,Huambo,Spo Luis Health Post,Posto de Saúde,MoH,-12.7758,15.7381,Google Earth
746,Angola,Huambo,Spo Pedro Sumi Health Post,Posto de Saúde,MoH,-12.8462,15.5587,Other
747,Angola,Huambo,Spo Tarcisio Health Post,Posto de Saúde,MoH,-12.7868,15.7383,Google Earth
748,Angola,Huambo,Sucuanjali Health Post,Posto de Saúde,MoH,-12.8301,15.5973,Google Earth
749,Angola,Huambo,Talulua Health Post,Posto de Saúde,MoH,-12.8,16.0,Other
750,Angola,Huambo,Tchicala Health Post,Posto de Saúde,MoH,-12.7689,15.4614,Other
751,Angola,Huambo,Tchilela Health Post,Posto de Saúde,MoH,-12.5697,15.4569,Other
752,Angola,Huambo,Tchilombe Health Post,Posto de Saúde,MoH,-12.1171,16.2229,Other
753,Angola,Huambo,Tchivela Health Post,Posto de Saúde,MoH,-12.7077,15.1652,Combination
754,Angola,Huambo,Teresa Health Post,Posto de Saúde,MoH,-12.8094,15.9027,Other
755,Angola,Huambo,Ukuma Health Centre,Centro de Saúde,MoH,-12.8587,15.0691,Other
756,Angola,Huambo,Ukuma Municipal Hospital,Municipal Hospital,Govt.,-12.8661,15.0701,Other
757,Angola,Huambo,Ulondo Health Post,Posto de Saúde,MoH,-12.5346,15.9878,Other
758,Angola,Huambo,Ulundo Health Post,Posto de Saúde,MoH,-11.8206,15.8291,Combination
759,Angola,Huambo,Ussinda- Catota Health Post,Posto de Saúde,MoH,-12.7821,16.083,Other
760,Angola,Huambo,Ussoque Health Centre,Centro de Saúde,MoH,-12.35,15.1,Other
761,Angola,Huambo,Utende Health Post,Posto de Saúde,MoH,-11.515,15.7253,Other
762,Angola,Huambo,Vale do Queve Health Post,Posto de Saúde,MoH,-12.8539,15.7604,Combination
763,Angola,Huambo,Velha Chica Health Post,Posto de Saúde,MoH,-12.1999,15.85,Combination
764,Angola,Huambo,Vila Franca do Queve Health Post,Posto de Saúde,MoH,-11.9849,15.3639,Google Earth
765,Angola,Huila,Agostino Neto Hospital,Hospital,Govt.,-14.8843,13.5201,Other
766,Angola,Huila,Alto Bimbi Health Post,Posto de Saúde,MoH,-14.9889,13.32,Other
767,Angola,Huila,Alto Uaba Health Post,Posto de Saúde,MoH,-13.7854,14.8785,Other
768,Angola,Huila,Andefil Centro Materno Infantil,Centro Materno Infantil,MoH,-14.7649,13.9059,Combination
769,Angola,Huila,Anhara Health Post,Posto de Saúde,MoH,-14.0645,16.4217,Other
770,Angola,Huila,Arimba Health Centre,Centro de Saúde,MoH,-14.952,13.6018,Other
771,Angola,Huila,Bambi Health Centre,Centro de Saúde,MoH,-14.0535,15.5743,Other
772,Angola,Huila,Banda Health Post,Posto de Saúde,MoH,,,
773,Angola,Huila,Bandeira Health Post,Posto de Saúde,MoH,-14.0167,15.1833,Other
774,Angola,Huila,Batabata Health Post,Posto de Saúde,MoH,-15.2425,13.3878,Other
775,Angola,Huila,Beu Health Post,Posto de Saúde,MoH,-14.5961,15.471,Combination
776,Angola,Huila,Bissapa Health Post,Posto de Saúde,MoH,-13.7,14.8833,Other
777,Angola,Huila,Bonga Health Post,Posto de Saúde,MoH,-14.0784,14.0797,Other
778,Angola,Huila,Buandangui Health Post,Posto de Saúde,MoH,-14.1869,14.4279,Other
779,Angola,Huila,Bula Matadi Health Centre,Centro de Saúde,MoH,-14.9052,13.5142,Other
780,Angola,Huila,Bulo Health Post,Posto de Saúde,MoH,-14.1896,14.6675,Other
781,Angola,Huila,Buloteque Health Post,Posto de Saúde,MoH,-13.8056,15.7952,Google Earth
782,Angola,Huila,Bunjei Health Centre,Centro de Saúde,MoH,-13.5333,16.0167,Other
783,Angola,Huila,Cabiri comercial Health Post,Posto de Saúde,MoH,-14.001,14.984,Encarta
784,Angola,Huila,Cabiri Regidoria Health Post,Posto de Saúde,MoH,-14.1371,14.9139,Combination
785,Angola,Huila,Cacola Health Post,Posto de Saúde,MoH,-14.7183,16.0414,Other
786,Angola,Huila,Cacolo Health Post,Posto de Saúde,MoH,-13.8798,14.828,Other
787,Angola,Huila,Cacula Municipal Hospital,Municipal Hospital,Govt.,-14.4927,14.1187,Combination
788,Angola,Huila,Caculuvale Health Post,Posto de Saúde,MoH,-14.9043,13.7372,Other
789,Angola,Huila,Cahala Health Post,Posto de Saúde,MoH,-13.9202,14.4599,Other
790,Angola,Huila,Caholo Health Centre,Centro de Saúde,MoH,-15.1333,13.3333,Other
791,Angola,Huila,Calumbo Health Post,Posto de Saúde,MoH,,,
792,Angola,Huila,Caluquembe Municipal Hospital,Municipal Hospital,Govt.,-13.8833,14.5444,Combination
793,Angola,Huila,Caluva Health Post,Posto de Saúde,MoH,-14.8855,13.5975,Other
794,Angola,Huila,Caluvango Health Post,Posto de Saúde,MoH,,,
795,Angola,Huila,Caluvombolo Health Post,Posto de Saúde,MoH,-13.8676,15.2483,Other
796,Angola,Huila,Camassi embala Health Post,Posto de Saúde,MoH,-13.73,15.2091,Other
797,Angola,Huila,Camassissa Health Post,Posto de Saúde,MoH,-13.8219,15.9328,Other
798,Angola,Huila,Cambandgi Health Post,Posto de Saúde,MoH,,,
799,Angola,Huila,Cambole Health Post,Posto de Saúde,MoH,-14.0667,16.4167,Other
800,Angola,Huila,Camucuio Health Post,Posto de Saúde,MoH,-14.131,14.6781,Other
801,Angola,Huila,Camulemba Health Post,Posto de Saúde,MoH,-14.0782,14.0706,Combination
802,Angola,Huila,Camulemba Health Post,Posto de Saúde,MoH,-13.8795,14.3179,Other
803,Angola,Huila,Camunabe Health Post,Posto de Saúde,MoH,,,
804,Angola,Huila,Candjanguiti Health Post,Posto de Saúde,MoH,-14.7503,15.0795,Combination
805,Angola,Huila,Canduco Health Post,Posto de Saúde,MoH,-13.5833,14.9333,Other
806,Angola,Huila,Cangolo Health Post,Posto de Saúde,MoH,-15.0,13.8667,Other
807,Angola,Huila,Canhandi Health Post,Posto de Saúde,MoH,-15.2284,16.039,Other
808,Angola,Huila,Capandeio Health Post,Posto de Saúde,MoH,-15.6511,13.7512,Other
809,Angola,Huila,Capelongo Hospital,Hospital,Govt.,-14.8904,15.0774,Combination
810,Angola,Huila,Capelongo Municipal Hospital,Municipal Hospital,Govt.,-14.4548,16.2937,Combination
811,Angola,Huila,Carmoloy Health Post,Posto de Saúde,MoH,,,
812,Angola,Huila,Casa mae Health Post,Posto de Saúde,MoH,-14.9199,13.4701,Other
813,Angola,Huila,Cassoco Health Post,Posto de Saúde,MoH,-13.65,15.0,Other
814,Angola,Huila,Cassuca Health Post,Posto de Saúde,MoH,,,
815,Angola,Huila,Castanheira Pera Health Post,Posto de Saúde,MoH,-14.8239,15.0293,Other
816,Angola,Huila,Catala Health Post,Posto de Saúde,MoH,-13.9561,13.9012,Other
817,Angola,Huila,Catapi baixo Health Post,Posto de Saúde,MoH,-13.8832,14.9455,Other
818,Angola,Huila,Cateya Health Post,Posto de Saúde,MoH,-13.7771,14.6921,Other
819,Angola,Huila,Catonga Health Post,Posto de Saúde,MoH,-14.15,14.8167,Other
820,Angola,Huila,Catumbela Health Post,Posto de Saúde,MoH,-13.947,15.4686,Other
821,Angola,Huila,Cavi Health Post,Posto de Saúde,MoH,,,
822,Angola,Huila,Centro Comunal Health Centre,Centro de Saúde,MoH,-14.6956,16.026,Combination
823,Angola,Huila,Chaungo Health Post,Posto de Saúde,MoH,-15.2333,13.8667,Other
824,Angola,Huila,Chem Chem Health Post,Posto de Saúde,MoH,-14.7089,14.1022,Other
825,Angola,Huila,Cheraquera Health Post,Posto de Saúde,MoH,-14.5173,15.0463,Other
826,Angola,Huila,Chiange Health Centre,Centro de Saúde,MoH,-15.733,13.9,Other
827,Angola,Huila,Chibemba Health Post,Posto de Saúde,MoH,-15.75,14.083,Other
828,Angola,Huila,Chibia Municipal Health Centre,Centro de Saúde,MoH,-15.1823,13.7031,Other
829,Angola,Huila,Chibolelo Health Post,Posto de Saúde,MoH,-15.7522,14.0756,Combination
830,Angola,Huila,Chicambi Health Post,Posto de Saúde,MoH,-13.7667,15.3333,Other
831,Angola,Huila,Chicomba Municipal Hospital,Municipal Hospital,Govt.,-14.1322,14.9201,Other
832,Angola,Huila,Chicomba Velha Health Post,Posto de Saúde,MoH,-14.1912,14.9092,Other
833,Angola,Huila,Chiconco Health Post,Posto de Saúde,MoH,,,
834,Angola,Huila,Chicuaqueya Health Post,Posto de Saúde,MoH,-14.3551,14.25,Encarta
835,Angola,Huila,Chicungo Health Post,Posto de Saúde,MoH,-14.8833,14.2,Other
836,Angola,Huila,Chilunda Health Post,Posto de Saúde,MoH,-14.1146,14.5189,Other
837,Angola,Huila,Chimbalandongo Health Post,Posto de Saúde,MoH,-14.25,15.1,Other
838,Angola,Huila,Chimukua Health Post,Posto de Saúde,MoH,-15.0696,13.9811,Other
839,Angola,Huila,Chindendema Health Post,Posto de Saúde,MoH,-13.7821,14.5397,Other
840,Angola,Huila,Chindingui Health Post,Posto de Saúde,MoH,,,
841,Angola,Huila,Chinjenje Health Post,Posto de Saúde,MoH,-13.6913,15.0866,Other
842,Angola,Huila,Chipindo Municipal Hospital,Municipal Hospital,Govt.,-13.8162,15.7861,Other
843,Angola,Huila,Chitapua Health Post,Posto de Saúde,MoH,-14.4,15.2833,Other
844,Angola,Huila,Chituto Health Post,Posto de Saúde,MoH,-15.068,13.432,Encarta
845,Angola,Huila,Chivulu Health Post,Posto de Saúde,MoH,-14.234,14.363,Other
846,Angola,Huila,Chiyoya Health Post,Posto de Saúde,MoH,-13.65,15.8937,Combination
847,Angola,Huila,Cola Health Centre,Centro de Saúde,MoH,-13.6,14.8333,Other
848,Angola,Huila,Comarca Health Post,Posto de Saúde,MoH,-14.9326,13.5695,Combination
849,Angola,Huila,Condjendgi Health Post,Posto de Saúde,MoH,-15.0412,13.6051,Other
850,Angola,Huila,Conjao Health Post,Posto de Saúde,MoH,-13.7875,15.2758,Combination
851,Angola,Huila,Cuanja Municipal Hospital,Municipal Hospital,Govt.,-14.6944,16.0259,Combination
852,Angola,Huila,Cue I Health Post,Posto de Saúde,MoH,-13.9263,14.7348,Other
853,Angola,Huila,Cue III Health Post,Posto de Saúde,MoH,-14.0339,14.769,Other
854,Angola,Huila,Cusse Health Post,Posto de Saúde,MoH,-13.517,15.2,Other
855,Angola,Huila,Cussesse Health Post,Posto de Saúde,MoH,-13.7898,14.6858,Combination
856,Angola,Huila,Cutembo Health Post,Posto de Saúde,MoH,-13.85,14.1,Other
857,Angola,Huila,Cutenda Health Post,Posto de Saúde,MoH,-14.3667,15.0833,Other
858,Angola,Huila,Dafran Centro Materno Infantil,Centro Materno Infantil,MoH,,,
859,Angola,Huila,Dende Health Post,Posto de Saúde,MoH,-13.8397,14.934,Other
860,Angola,Huila,Dengue Health Post,Posto de Saúde,MoH,-13.7352,15.057,Other
861,Angola,Huila,Deus Ajuda Health Post,Posto de Saúde,MoH,-15.0066,13.3746,Combination
862,Angola,Huila,Dilidinda Health Post,Posto de Saúde,MoH,-14.504,14.9013,Other
863,Angola,Huila,Dongue Health Post,Posto de Saúde,MoH,-15.4235,14.0375,Other
864,Angola,Huila,Dovala Health Post,Posto de Saúde,MoH,-13.5497,15.9642,Other
865,Angola,Huila,Etunda Health Post,Posto de Saúde,MoH,-13.7994,14.6787,Combination
866,Angola,Huila,FazenTomba Health Post,Posto de Saúde,MoH,-15.6002,13.8003,Other
867,Angola,Huila,Fendi Health Post,Posto de Saúde,MoH,-14.0667,15.3667,Other
868,Angola,Huila,Figueira Health Post,Posto de Saúde,MoH,-14.9667,13.5693,Other
869,Angola,Huila,Frexiel Health Post,Posto de Saúde,MoH,-14.9252,15.1035,Other
870,Angola,Huila,Galangue Health Centre,Centro de Saúde,MoH,-13.7992,16.1031,Other
871,Angola,Huila,Gandu Health Post,Posto de Saúde,MoH,-13.7587,14.6981,Combination
872,Angola,Huila,Gervei Health Post,Posto de Saúde,MoH,,,
873,Angola,Huila,Gloria Deus Centro Materno Infantil,Centro Materno Infantil,MoH,-15.1838,13.692,Google Earth
874,Angola,Huila,Guela Health Post,Posto de Saúde,MoH,-13.7587,14.6993,Combination
875,Angola,Huila,Heque Health Centre,Centro de Saúde,MoH,-14.6607,13.9048,Other
876,Angola,Huila,Hidromina Health Centre,Centro de Saúde,MoH,,,
877,Angola,Huila,Hole Health Post,Posto de Saúde,MoH,-14.2718,13.7862,Other
878,Angola,Huila,Hombo Health Post,Posto de Saúde,MoH,-14.9,14.8,Other
879,Angola,Huila,Hondeque Health Post,Posto de Saúde,MoH,-14.357,14.6774,Other
880,Angola,Huila,Hufla Health Centre,Centro de Saúde,MoH,-15.0607,13.5469,Other
881,Angola,Huila,Hungo Health Post,Posto de Saúde,MoH,,,
882,Angola,Huila,Hungulo Health Post,Posto de Saúde,MoH,-14.498,16.2814,Other
883,Angola,Huila,IESA Municipal Hospital,Municipal Hospital,Govt.,-13.8137,14.6783,Combination
884,Angola,Huila,Igreja Evangelica Sinodal de Angola Hospital,Hospital,Govt.,-13.7966,14.6805,Google Earth
885,Angola,Huila,Indungo Health Post,Posto de Saúde,MoH,-14.8167,16.2667,Other
886,Angola,Huila,Jamba Municipal Hospital,Municipal Hospital,Govt.,-14.6822,16.0361,Other
887,Angola,Huila,Januário Calola Municipal Hospital,Municipal Hospital,Govt.,-14.1369,14.9124,Combination
888,Angola,Huila,Jau Health Post,Posto de Saúde,MoH,-15.2333,13.5167,Other
889,Angola,Huila,Kabana Health Post,Posto de Saúde,MoH,-14.6171,15.4911,Other
890,Angola,Huila,Kafela Health Post,Posto de Saúde,MoH,,,
891,Angola,Huila,Kaila Health Post,Posto de Saúde,MoH,,,
892,Angola,Huila,Kainda Health Post,Posto de Saúde,MoH,,,
893,Angola,Huila,Kalei Health Post,Posto de Saúde,MoH,-14.473,16.2881,Other
894,Angola,Huila,Kalemba Health Post,Posto de Saúde,MoH,-14.3646,16.4485,Other
895,Angola,Huila,Kalemba Tchitunda Health Post,Posto de Saúde,MoH,-14.5599,15.0204,Other
896,Angola,Huila,Kalepi Health Post,Posto de Saúde,MoH,-13.8718,14.5017,Other
897,Angola,Huila,Kamana Health Post,Posto de Saúde,MoH,-15.1926,13.6825,Google Earth
898,Angola,Huila,Kangolo Health Post,Posto de Saúde,MoH,-14.9976,13.876,Other
899,Angola,Huila,Kapelongo Hospital,Hospital,Govt.,-14.8823,15.0861,Other
900,Angola,Huila,Kassinda Health Post,Posto de Saúde,MoH,-14.6649,16.0644,Combination
901,Angola,Huila,Katala Health Post,Posto de Saúde,MoH,,,
902,Angola,Huila,Kativa Health Post,Posto de Saúde,MoH,-14.2159,16.1764,Other
903,Angola,Huila,Katoco Health Post,Posto de Saúde,MoH,-14.5328,16.3584,Other
904,Angola,Huila,Katoho Health Post,Posto de Saúde,MoH,,,
905,Angola,Huila,Kilometro 15 Health Post,Posto de Saúde,MoH,-14.742,14.8929,Other
906,Angola,Huila,Kilometro 16 Health Post,Posto de Saúde,MoH,-15.0161,13.5938,Other
907,Angola,Huila,Kilometro 50 Health Post,Posto de Saúde,MoH,-14.6343,16.3947,Combination
908,Angola,Huila,Kilometro 9 Health Post,Posto de Saúde,MoH,,,
909,Angola,Huila,Kolui Health Post,Posto de Saúde,MoH,,,
910,Angola,Huila,Kussava Health Post,Posto de Saúde,MoH,-14.513,15.9929,Other
911,Angola,Huila,Kuvango Comunal Health Centre,Centro de Saúde,MoH,-14.467,16.3,Other
912,Angola,Huila,Kuvango Municipal Health Centre,Centro de Saúde,MoH,-14.4662,16.3031,Other
913,Angola,Huila,Kuvelai Health Post,Posto de Saúde,MoH,-14.5527,14.7803,Other
914,Angola,Huila,Kwawa Health Post,Posto de Saúde,MoH,,,
915,Angola,Huila,Lalula Health Post,Posto de Saúde,MoH,-14.647,13.9283,Combination
916,Angola,Huila,Leba Health Post,Posto de Saúde,MoH,-15.0833,13.2667,Other
917,Angola,Huila,Libongue Health Post,Posto de Saúde,MoH,-14.1667,15.1667,Other
918,Angola,Huila,Lombindi Health Post,Posto de Saúde,MoH,,,
919,Angola,Huila,Lomupa Health Post,Posto de Saúde,MoH,-13.801,14.6843,Other
920,Angola,Huila,Lubango Central Hospital,Central Hospital,Govt.,-14.9163,13.5031,Other
921,Angola,Huila,Lubango Municipal Hospital,Municipal Hospital,Govt.,-14.895,13.5007,Combination
922,Angola,Huila,Lucon Missao Health Post,Posto de Saúde,MoH,-14.2924,13.9174,Other
923,Angola,Huila,Lucondo Health Post,Posto de Saúde,MoH,-14.3333,13.9711,Other
924,Angola,Huila,Lufinda Health Post,Posto de Saúde,MoH,-15.15,13.95,Other
925,Angola,Huila,Luheque Health Post,Posto de Saúde,MoH,-15.0282,13.3679,Combination
926,Angola,Huila,Luiovo Health Post,Posto de Saúde,MoH,-14.8175,13.6289,Other
927,Angola,Huila,Luseque Health Post,Posto de Saúde,MoH,-14.6514,15.0701,Other
928,Angola,Huila,Machiqueira Health Centre,Centro de Saúde,MoH,-14.8893,13.5024,Combination
929,Angola,Huila,Malutuvu Health Post,Posto de Saúde,MoH,-15.86,14.0728,Combination
930,Angola,Huila,Mapumumo Health Post,Posto de Saúde,MoH,-14.0281,14.1379,Other
931,Angola,Huila,Mapunda Health Centre,Centro de Saúde,MoH,,,
932,Angola,Huila,Margon Centro Materno Infantil,Centro Materno Infantil,MoH,-14.9331,13.6179,Combination
933,Angola,Huila,Matala Municipal Hospital,Municipal Hospital,Govt.,-14.7507,15.0403,Combination
934,Angola,Huila,Mateta Health Post,Posto de Saúde,MoH,,,
935,Angola,Huila,Matuntu Health Post,Posto de Saúde,MoH,-15.3667,15.2667,Other
936,Angola,Huila,Mawenge Health Post,Posto de Saúde,MoH,,,
937,Angola,Huila,Mbala ya Ndumba Health Post,Posto de Saúde,MoH,-14.4755,16.2137,Other
938,Angola,Huila,Mbala yo Mpate Health Post,Posto de Saúde,MoH,-14.9984,13.4354,Combination
939,Angola,Huila,Missao catolica Health Post,Posto de Saúde,MoH,-14.3936,16.294,Other
940,Angola,Huila,Missão Católica-Madre Isabel Hospital,Hospital,Govt.,-14.0999,14.9266,Combination
941,Angola,Huila,Missao Chilunda Health Post,Posto de Saúde,MoH,-13.9856,14.414,Other
942,Angola,Huila,Missao Health Post,Posto de Saúde,MoH,-15.1944,13.6843,Other
943,Angola,Huila,Missao Igreja EvangTlica Congregacional em Angola (IECA) Health Post,Posto de Saúde,MoH,-13.8178,15.7887,Google Earth
944,Angola,Huila,Missao Santiago Health Centre,Centro de Saúde,MoH,,,
945,Angola,Huila,Mitcha Hospital,Hospital,Govt.,-14.8944,13.4981,Other
946,Angola,Huila,Mpity Health Post,Posto de Saúde,MoH,-15.1823,13.6942,Google Earth
947,Angola,Huila,Mucoyo Health Post,Posto de Saúde,MoH,,,
948,Angola,Huila,Muholo Health Post,Posto de Saúde,MoH,-14.7643,15.0156,Other
949,Angola,Huila,Mulenga Health Post,Posto de Saúde,MoH,,,
950,Angola,Huila,Mumba Health Post,Posto de Saúde,MoH,-14.647,16.4455,Other
951,Angola,Huila,Mundinda Health Post,Posto de Saúde,MoH,-13.9391,15.4415,Other
952,Angola,Huila,Mundindi Health Post,Posto de Saúde,MoH,,,
953,Angola,Huila,Munguila Health Post,Posto de Saúde,MoH,-13.6423,15.2573,Other
954,Angola,Huila,Muninho Health Post,Posto de Saúde,MoH,-15.0133,13.5605,Other
955,Angola,Huila,Mupopo Health Post,Posto de Saúde,MoH,-15.3478,15.8813,Other
956,Angola,Huila,Mussica Health Post,Posto de Saúde,MoH,-13.8978,15.1433,Other
957,Angola,Huila,Mussindja Health Post,Posto de Saúde,MoH,-14.144,13.9459,Other
958,Angola,Huila,Mutiapulu Health Post,Posto de Saúde,MoH,-15.167,15.6347,Other
959,Angola,Huila,Mutundo Health Post,Posto de Saúde,MoH,-14.8697,13.5937,Other
960,Angola,Huila,Nambambe Health Centre,Centro de Saúde,MoH,-14.8891,13.5209,Other
961,Angola,Huila,Nazara Health Post,Posto de Saúde,MoH,,,
962,Angola,Huila,Ngelenge Health Post,Posto de Saúde,MoH,-15.5238,14.124,Combination
963,Angola,Huila,Ngola Health Post,Posto de Saúde,MoH,-14.1322,14.5031,Other
964,Angola,Huila,Ngungui Health Post,Posto de Saúde,MoH,,,
965,Angola,Huila,Nohenda Health Post,Posto de Saúde,MoH,-14.958,13.5664,Combination
966,Angola,Huila,Nombueneno Health Post,Posto de Saúde,MoH,-15.317,13.949,Encarta
967,Angola,Huila,Nondumbo Health Post,Posto de Saúde,MoH,-14.5676,15.0461,Other
968,Angola,Huila,Nonjiwe Health Post,Posto de Saúde,MoH,-14.9124,13.5522,Combination
969,Angola,Huila,Nossa Sra Paz Health Post,Posto de Saúde,MoH,-14.9169,13.4933,Combination
970,Angola,Huila,Nova Montpo Health Post,Posto de Saúde,MoH,,,
971,Angola,Huila,Nova Montpo Health Post,Posto de Saúde,MoH,,,
972,Angola,Huila,Nusse Health Post,Posto de Saúde,MoH,-14.4868,14.7975,Other
973,Angola,Huila,Oma Health Centre,Centro de Saúde,MoH,-14.662,13.9024,Combination
974,Angola,Huila,Onculuvale Health Post,Posto de Saúde,MoH,,,
975,Angola,Huila,P. Zeca Hospital,Hospital,Govt.,-14.914,13.4927,Combination
976,Angola,Huila,Pangelo Health Post,Posto de Saúde,MoH,-15.9392,13.7127,Other
977,Angola,Huila,Pioneiro Zeca Hospital,Hospital,Govt.,-14.9257,13.4947,Google Earth
978,Angola,Huila,Poares Health Post,Posto de Saúde,MoH,-14.8835,13.5374,Combination
979,Angola,Huila,Pocolo Health Post,Posto de Saúde,MoH,-15.8007,13.8042,Other
980,Angola,Huila,Que II Health Post,Posto de Saúde,MoH,-13.8169,15.1189,Other
981,Angola,Huila,Quicuco Health Post,Posto de Saúde,MoH,-14.2667,13.85,Other
982,Angola,Huila,Quilemba Health Centre,Centro de Saúde,MoH,-14.7775,13.5011,Other
983,Angola,Huila,Quilengues Municipal Hospital,Municipal Hospital,Govt.,-14.0786,14.0748,Combination
984,Angola,Huila,Quipungo Municipal Hospital,Municipal Hospital,Govt.,-14.8761,14.1915,Combination
985,Angola,Huila,Quiteve Health Post,Posto de Saúde,MoH,-15.8797,14.9824,Other
986,Angola,Huila,Quo Health Post,Posto de Saúde,MoH,-14.4387,14.7957,Other
987,Angola,Huila,Rio Capitao Health Centre,Centro de Saúde,MoH,-14.9183,13.4899,Combination
988,Angola,Huila,Rio de Areia Health Post,Posto de Saúde,MoH,-15.6159,14.0586,Other
989,Angola,Huila,Rio Nangombe Health Post,Posto de Saúde,MoH,,,
990,Angola,Huila,Rio Unene Health Post,Posto de Saúde,MoH,,,
991,Angola,Huila,Sanatório Hospital Lubango,Hospital,Govt.,-14.9203,13.4801,Combination
992,Angola,Huila,Sandje Health Post,Posto de Saúde,MoH,-13.6759,15.7991,Other
993,Angola,Huila,Sangueve Health Post,Posto de Saúde,MoH,-13.8886,15.8538,Other
994,Angola,Huila,Sede Health Centre,Centro de Saúde,MoH,-15.0102,13.3804,Other
995,Angola,Huila,Sede Health Centre,Centro de Saúde,MoH,-14.8267,14.5467,Combination
996,Angola,Huila,Sede Health Centre,Centro de Saúde,MoH,-14.7381,15.0268,Combination
997,Angola,Huila,Sede Health Centre,Centro de Saúde,MoH,-14.5027,14.1234,Other
998,Angola,Huila,Sede Health Centre,Centro de Saúde,MoH,-13.7762,14.6934,Combination
999,Angola,Huila,Sede Health Centre,Centro de Saúde,MoH,-13.5182,15.189,Other
1000,Angola,Huila,Sede Health Post,Posto de Saúde,MoH,-14.7308,15.0345,Combination
1001,Angola,Huila,Sede Health Post,Posto de Saúde,MoH,-14.7032,16.0381,Combination
1002,Angola,Huila,Sede Health Post,Posto de Saúde,MoH,-13.7965,14.6798,Google Earth
1003,Angola,Huila,Sede I comunal Health Post,Posto de Saúde,MoH,-14.0826,14.0772,Combination
1004,Angola,Huila,Sede I Health Centre,Centro de Saúde,MoH,-14.917,13.5,Other
1005,Angola,Huila,Sede I Health Post,Posto de Saúde,MoH,-15.1865,13.6891,Combination
1006,Angola,Huila,Sede I Health Post,Posto de Saúde,MoH,-15.0065,13.3754,Combination
1007,Angola,Huila,Sede I Health Post,Posto de Saúde,MoH,-14.9157,13.5017,Combination
1008,Angola,Huila,Sede I Health Post,Posto de Saúde,MoH,-14.7341,15.0044,Combination
1009,Angola,Huila,Sede II comunal Health Post,Posto de Saúde,MoH,-14.0697,14.0742,Combination
1010,Angola,Huila,Sede II Health Centre,Centro de Saúde,MoH,-14.9282,13.5223,Google Earth
1011,Angola,Huila,Sede II Health Centre,Centro de Saúde,MoH,-14.0753,14.0745,Combination
1012,Angola,Huila,Sede II Health Post,Posto de Saúde,MoH,-15.1937,13.6834,Combination
1013,Angola,Huila,Sede II Health Post,Posto de Saúde,MoH,-15.0239,13.3826,Combination
1014,Angola,Huila,Sede II Health Post,Posto de Saúde,MoH,-14.9469,13.575,Combination
1015,Angola,Huila,Sede III Health Post,Posto de Saúde,MoH,-15.0365,13.3719,Combination
1016,Angola,Huila,Sendi Health Centre,Centro de Saúde,MoH,-14.6,14.25,Other
1017,Angola,Huila,Sequendiva Health Post,Posto de Saúde,MoH,-15.7186,15.3734,Other
1018,Angola,Huila,Socobal Health Post,Posto de Saúde,MoH,,,
1019,Angola,Huila,Sofrio Health Centre,Centro de Saúde,MoH,,,
1020,Angola,Huila,Taka Health Post,Posto de Saúde,MoH,-16.0634,13.5854,Other
1021,Angola,Huila,Tandavala Health Post,Posto de Saúde,MoH,-14.9149,13.5013,Other
1022,Angola,Huila,Tapo Health Post,Posto de Saúde,MoH,-15.7349,13.8889,Other
1023,Angola,Huila,Tchakaya Health Post,Posto de Saúde,MoH,,,
1024,Angola,Huila,Tchanja Health Post,Posto de Saúde,MoH,-14.9118,13.5007,Other
1025,Angola,Huila,Tchavola Health Post,Posto de Saúde,MoH,-13.7152,14.4879,Other
1026,Angola,Huila,Tchiku  Centro Materno Infantil,Centro Materno Infantil,MoH,-15.0376,13.3724,Combination
1027,Angola,Huila,Tchiku Health Post,Posto de Saúde,MoH,,,
1028,Angola,Huila,Tchikuatite Centro Materno Infantil,Centro Materno Infantil,MoH,-15.1953,13.6844,Other
1029,Angola,Huila,Tchikuatite Health Post,Posto de Saúde,MoH,-15.1797,14.1312,Other
1030,Angola,Huila,Tchinguendjo Health Post,Posto de Saúde,MoH,-13.6211,16.3031,Other
1031,Angola,Huila,Tchioco Health Centre,Centro de Saúde,MoH,-14.9343,13.5619,Other
1032,Angola,Huila,Tchipalakassa Health Post,Posto de Saúde,MoH,,,
1033,Angola,Huila,Tchipangula Health Post,Posto de Saúde,MoH,,,
1034,Angola,Huila,Tchipopia Health Post,Posto de Saúde,MoH,-14.8727,14.9218,Other
1035,Angola,Huila,Tchitaqui baixo Health Post,Posto de Saúde,MoH,,,
1036,Angola,Huila,Tchitata Health Post,Posto de Saúde,MoH,-13.6743,15.7125,Other
1037,Angola,Huila,Tchituli Health Post,Posto de Saúde,MoH,-14.4687,13.8518,Other
1038,Angola,Huila,Tchituto Health Post,Posto de Saúde,MoH,,,
1039,Angola,Huila,Tchiueca Health Post,Posto de Saúde,MoH,-13.5535,15.0441,Other
1040,Angola,Huila,Tchivinguilo Complex Health Post,Posto de Saúde,MoH,-15.1651,13.3044,Other
1041,Angola,Huila,Tchombulo Health Post,Posto de Saúde,MoH,-15.048,13.545,Combination
1042,Angola,Huila,Tchunbangombe Health Post,Posto de Saúde,MoH,,,
1043,Angola,Huila,Toco Health Post,Posto de Saúde,MoH,-14.7809,13.7771,Other
1044,Angola,Huila,Tucondoca Health Post,Posto de Saúde,MoH,,,
1045,Angola,Huila,Ukali Povoatpo Health Post,Posto de Saúde,MoH,-13.9262,14.0388,Other
1046,Angola,Huila,Upalo Health Post,Posto de Saúde,MoH,,,
1047,Angola,Huila,Valodia Health Post,Posto de Saúde,MoH,-14.7708,16.1209,Other
1048,Angola,Huila,Vatuco Health Post,Posto de Saúde,MoH,-13.9411,14.6145,Other
1049,Angola,Huila,Viamba Health Post,Posto de Saúde,MoH,-14.4052,14.2105,Other
1050,Angola,Huila,Vihonge Health Post,Posto de Saúde,MoH,-14.6373,16.0892,Other
1051,Angola,Huila,Vikenge Health Post,Posto de Saúde,MoH,,,
1052,Angola,Huila,Vila branca Health Post,Posto de Saúde,MoH,-14.02,14.5785,Other
1053,Angola,Huila,Vila Paula Health Post,Posto de Saúde,MoH,-14.8819,13.5729,Other
1054,Angola,Huila,Vila Real Health Post,Posto de Saúde,MoH,-14.0616,15.0757,Other
1055,Angola,Huila,Vionga Health Post,Posto de Saúde,MoH,-13.8194,14.755,Other
1056,Angola,Huila,Viopio Health Post,Posto de Saúde,MoH,-14.2995,14.8518,Other
1057,Angola,Huila,Viriambundo Health Post,Posto de Saúde,MoH,-15.55,14.05,Other
1058,Angola,Huila,Vissaca Health Post,Posto de Saúde,MoH,-14.8961,14.9744,Other
1059,Angola,Huila,Viti vivale Health Post,Posto de Saúde,MoH,,,
1060,Angola,Huila,Vombo Health Post,Posto de Saúde,MoH,-14.05,13.7667,Other
1061,Angola,Huila,Waba Health Post,Posto de Saúde,MoH,-13.7991,14.8715,Other
1062,Angola,Huila,Waya Health Post,Posto de Saúde,MoH,,,
1063,Angola,Huila,Yoba Health Post,Posto de Saúde,MoH,,,
1064,Angola,Huila,Yumbi Health Post,Posto de Saúde,MoH,-13.7972,14.9495,Other
1065,Angola,Kuango Kubango,Consol Provincial de Kuango Kubango,Provincial Hospital,Govt.,-14.6601,17.6988,Google Earth
1066,Angola,Kuango Kubango,Hospital Municipal do Kuvango,Municipal Hospital,Govt.,-14.3699,16.4957,Google Earth
1067,Angola,Luanda,Hospital Américo Boavida,Hospital,Govt.,-8.8242,13.2577,Google Earth
1068,Angola,Luanda,Hospital Do Prenda,Hospital,Govt.,-8.8325,13.2221,Google Earth
1069,Angola,Luanda,Hospital dos Cajueiros,Hospital,Govt.,-8.8246,13.2791,Google Earth
1070,Angola,Luanda,Hospital Geral Camama,General Hospital,Govt.,-8.9169,13.26,Google Earth
1071,Angola,Luanda,Hospital Geral Kilamba Kiaxi,General Hospital,Govt.,-8.8495,13.2581,Google Earth
1072,Angola,Luanda,Hospital Josina Machel,Hospital,Govt.,-8.8235,13.2245,Google Earth
1073,Angola,Luanda,Hospital Municipal de Luanda,Municipal Hospital,Govt.,-8.8538,13.2947,Google Earth
1074,Angola,Luanda,Hospital Neves Bendinha,Hospital,Govt.,-8.8404,13.2581,Google Earth
1075,Angola,Luanda,Hospital Sanatório,Hospital,Govt.,-8.8613,13.2835,Google Earth
1076,Angola,Lunda Norte,Hospital Municipal de Cafunfo,Municipal Hospital,Govt.,-8.7735,17.9848,Google Earth
1077,Angola,Lunda Norte,Hospital Municipal de Lucapa ,Municipal Hospital,Govt.,-8.4263,20.7357,Google Earth
1078,Angola,Lunda Norte,Hospital Municipal de Nzagi Cambulo,Municipal Hospital,Govt.,-7.6839,21.3561,Google Earth
1079,Angola,Lunda Norte,Hospital Provincial da Luanda Norte,Provincial Hospital,Govt.,-8.6806,18.9092,Google Earth
1080,Angola,Lunda Sul,Consol Provincial de Luanda Sul,Provincial Hospital,Govt.,-9.6709,20.388,Google Earth
1081,Angola,Malanje,Amaral Health Post,Posto de Saúde,MoH,-9.2658,15.9423,Other
1082,Angola,Malanje,Bangalas Health Post,Posto de Saúde,MoH,,,
1083,Angola,Malanje,Bembo Health Post,Posto de Saúde,MoH,-10.2397,16.9086,Other
1084,Angola,Malanje,Bola Casaxe Health Post,Posto de Saúde,MoH,-9.8174,16.647,Other
1085,Angola,Malanje,Bumba Health Post,Posto de Saúde,MoH,-9.5707,16.2673,Other
1086,Angola,Malanje,Bundo Health Post,Posto de Saúde,MoH,-10.9651,17.5746,Combination
1087,Angola,Malanje,Cabata Muhongo Health Post,Posto de Saúde,MoH,-8.5999,15.7059,Other
1088,Angola,Malanje,Caculama Municipal Hospital,Municipal Hospital,Govt.,-9.4833,16.85,Other
1089,Angola,Malanje,Cacuso Centro Materno Infantil,Centro Materno Infantil,MoH,-9.4383,16.1519,Other
1090,Angola,Malanje,Camatende Health Post,Posto de Saúde,MoH,-9.5807,16.2788,Other
1091,Angola,Malanje,Camatete Health Post,Posto de Saúde,MoH,-9.5822,16.4267,Other
1092,Angola,Malanje,Cambaxe Health Post,Posto de Saúde,MoH,-9.4102,16.4893,Other
1093,Angola,Malanje,Cambo Camana Health Post,Posto de Saúde,MoH,-8.848,16.6403,Other
1094,Angola,Malanje,Cambondo Health Post,Posto de Saúde,MoH,-9.4874,16.5432,Other
1095,Angola,Malanje,Cambunze Health Post,Posto de Saúde,MoH,-9.394,15.6469,Other
1096,Angola,Malanje,Cameme Health Post,Posto de Saúde,MoH,-8.0366,16.3411,Combination
1097,Angola,Malanje,Campo Cafuxi Health Post,Posto de Saúde,MoH,-9.2433,17.1704,Other
1098,Angola,Malanje,Canambua Health Centre,Centro de Saúde,MoH,-9.5653,16.3549,Other
1099,Angola,Malanje,Cangambo Health Centre,Centro de Saúde,MoH,-9.5235,16.309,Other
1100,Angola,Malanje,Cangandala Municipal Health Centre,Centro de Saúde,MoH,-9.7867,16.4318,Other
1101,Angola,Malanje,Cangando Health Post,Posto de Saúde,MoH,-9.5892,16.2216,Other
1102,Angola,Malanje,Canjila Health Post,Posto de Saúde,MoH,,,
1103,Angola,Malanje,Capele Health Post,Posto de Saúde,MoH,-8.4957,16.0073,Other
1104,Angola,Malanje,Capunda Health Post,Posto de Saúde,MoH,-10.7613,17.9447,Other
1105,Angola,Malanje,Caribo Health Post,Posto de Saúde,MoH,-9.6559,16.6751,Other
1106,Angola,Malanje,Casa Gaiato Health Post,Posto de Saúde,MoH,-9.5149,16.2707,Combination
1107,Angola,Malanje,Catala Health Post,Posto de Saúde,MoH,-9.4667,16.7167,Other
1108,Angola,Malanje,Cateco Cangola Health Post,Posto de Saúde,MoH,-8.4625,15.8263,Other
1109,Angola,Malanje,Caxinga Health Post,Posto de Saúde,MoH,-9.5431,17.0228,Other
1110,Angola,Malanje,Caxito Health Post,Posto de Saúde,MoH,-8.7516,15.8116,Other
1111,Angola,Malanje,Chindingo Health Post,Posto de Saúde,MoH,,,
1112,Angola,Malanje,Chiquita Health Post,Posto de Saúde,MoH,-8.6345,16.9599,Other
1113,Angola,Malanje,Cibanga Health Post,Posto de Saúde,MoH,-8.4818,16.0502,Other
1114,Angola,Malanje,Cota Health Post,Posto de Saúde,MoH,-9.2643,16.0986,Other
1115,Angola,Malanje,Culamagia Health Post,Posto de Saúde,MoH,-9.804,16.8967,Combination
1116,Angola,Malanje,Dala Samba Health Post,Posto de Saúde,MoH,-8.1205,16.7385,Other
1117,Angola,Malanje,Damba Health Post,Posto de Saúde,MoH,-9.386,16.7287,Other
1118,Angola,Malanje,Dombo Health Post,Posto de Saúde,MoH,-11.0026,17.816,Other
1119,Angola,Malanje,Dori Lombe Health Post,Posto de Saúde,MoH,-9.5374,16.1444,Other
1120,Angola,Malanje,Dos Kapuchinhos Health Centre,Centro de Saúde,MoH,-9.4978,16.2676,Combination
1121,Angola,Malanje,Dumba Cabango Health Post,Posto de Saúde,MoH,-10.1562,17.2011,Other
1122,Angola,Malanje,Fazenda Holanda Health Post,Posto de Saúde,MoH,-9.7,15.4167,Other
1123,Angola,Malanje,Joao Pascoal Health Post,Posto de Saúde,MoH,-9.089,15.9582,Combination
1124,Angola,Malanje,K. Katembo Municipal Hospital,Municipal Hospital,Govt.,-10.0713,17.5372,Other
1125,Angola,Malanje,Kahala Health Centre,Centro de Saúde,MoH,-9.5305,16.4023,Combination
1126,Angola,Malanje,Kahombo Municipal Hospital,Municipal Hospital,Govt.,-8.6929,16.5224,Other
1127,Angola,Malanje,Kalandula Municipal Hospital,Municipal Hospital,Govt.,-9.0873,15.9607,Other
1128,Angola,Malanje,Kambo Sunjinji Health Post,Posto de Saúde,MoH,-8.8232,16.7993,Other
1129,Angola,Malanje,Kambundi de Kuije Health Post,Posto de Saúde,MoH,-9.6391,16.3315,Other
1130,Angola,Malanje,Katepa Health Centre,Centro de Saúde,MoH,-9.5618,16.3348,Combination
1131,Angola,Malanje,Kela Municipal Hospital,Municipal Hospital,Govt.,-9.2658,17.086,Other
1132,Angola,Malanje,Kifucussa Health Post,Posto de Saúde,MoH,-9.3129,16.4696,Other
1133,Angola,Malanje,Kimbamba Health Post,Posto de Saúde,MoH,-9.5196,16.3238,Combination
1134,Angola,Malanje,Kingles Health Post,Posto de Saúde,MoH,,,
1135,Angola,Malanje,Kingongo Health Post,Posto de Saúde,MoH,,,
1136,Angola,Malanje,Kissanga ya  Teca,Posto de Saúde,MoH,-8.3582,17.0234,Other
1137,Angola,Malanje,Kitapa Health Post,Posto de Saúde,MoH,-10.0811,17.555,Other
1138,Angola,Malanje,Kiwaba Nzogi Municipal Hospital,Municipal Hospital,Govt.,-8.95,16.5,Other
1139,Angola,Malanje,Kizanga Health Centre,Centro de Saúde,MoH,-9.5418,16.3392,Combination
1140,Angola,Malanje,Kuale Health Post,Posto de Saúde,MoH,-8.3515,16.1631,Other
1141,Angola,Malanje,Kunda Dia Baze Municipal Hospital,Municipal Hospital,Govt.,-8.9,17.0667,Other
1142,Angola,Malanje,Lau Health Post,Posto de Saúde,MoH,-9.4582,16.3487,Other
1143,Angola,Malanje,Lau Health Post,Posto de Saúde,MoH,-9.4191,16.3358,Other
1144,Angola,Malanje,Lemba Health Post,Posto de Saúde,MoH,-8.7811,17.2433,Other
1145,Angola,Malanje,Lemba Health Post,Posto de Saúde,MoH,-8.7744,17.2459,Other
1146,Angola,Malanje,Lombe Health Post,Posto de Saúde,MoH,-9.4868,16.1528,Other
1147,Angola,Malanje,Lukembo Municipal Hospital,Municipal Hospital,Govt.,-10.7319,17.72,Other
1148,Angola,Malanje,Lutau Health Post,Posto de Saúde,MoH,-9.0833,16.4322,Other
1149,Angola,Malanje,Malanje Centro Materno Infantil,Centro Materno Infantil,MoH,-9.5354,16.3259,Other
1150,Angola,Malanje,Malanje Health Centre,Centro de Saúde,MoH,-9.5451,16.3547,Other
1151,Angola,Malanje,Mangando Health Post,Posto de Saúde,MoH,-8.0453,17.129,Other
1152,Angola,Malanje,Maquina Health Post,Posto de Saúde,MoH,-9.2667,17.0833,Other
1153,Angola,Malanje,Maquina Health Post,Posto de Saúde,MoH,-8.6681,17.3647,Other
1154,Angola,Malanje,Marimba Municipal Hospital,Municipal Hospital,Govt.,-8.3587,17.0259,Other
1155,Angola,Malanje,Massango Municipal Hospital,Municipal Hospital,Govt.,-8.0318,16.3467,Other
1156,Angola,Malanje,Matete Health Post,Posto de Saúde,MoH,-9.4676,15.8925,Other
1157,Angola,Malanje,Maxinde Health Centre,Centro de Saúde,MoH,-9.5168,16.2425,Other
1158,Angola,Malanje,Mbambi Health Post,Posto de Saúde,MoH,-9.5312,16.2523,Other
1159,Angola,Malanje,Medile Health Post,Posto de Saúde,MoH,-9.1308,16.5045,Other
1160,Angola,Malanje,Mikanda Health Post,Posto de Saúde,MoH,-8.5056,16.3715,Other
1161,Angola,Malanje,Milando Health Post,Posto de Saúde,MoH,-8.8203,17.5511,Other
1162,Angola,Malanje,Milando Health Post,Posto de Saúde,MoH,-8.8127,17.5551,Other
1163,Angola,Malanje,Missao Catolica Health Post,Posto de Saúde,MoH,-9.1803,17.0704,Google Earth
1164,Angola,Malanje,Missao Catolica Health Post,Posto de Saúde,MoH,-9.0898,15.9551,Google Earth
1165,Angola,Malanje,Mola Health Post,Posto de Saúde,MoH,-8.7857,16.3409,Other
1166,Angola,Malanje,Moma Health Post,Posto de Saúde,MoH,-9.7295,17.3897,Other
1167,Angola,Malanje,Mufuma 1 Health Post,Posto de Saúde,MoH,-9.1942,16.4869,Other
1168,Angola,Malanje,Mufuma 2 Health Post,Posto de Saúde,MoH,-10.676,17.3685,Other
1169,Angola,Malanje,Muhenba Health Post,Posto de Saúde,MoH,-9.5745,16.2282,Other
1170,Angola,Malanje,Muondo Health Post,Posto de Saúde,MoH,-9.01,15.7517,Other
1171,Angola,Malanje,Muquixe Health Post,Posto de Saúde,MoH,-9.5,16.65,Other
1172,Angola,Malanje,Mussolo Health Post,Posto de Saúde,MoH,-10.0,17.3333,Other
1173,Angola,Malanje,Mussongo Health Post,Posto de Saúde,MoH,-8.0317,16.3451,Other
1174,Angola,Malanje,Nbanja Ngola Health Post,Posto de Saúde,MoH,-8.6955,16.52,Combination
1175,Angola,Malanje,Ndalango Nzamba Health Post,Posto de Saúde,MoH,-9.0633,16.2901,Other
1176,Angola,Malanje,Ngola Luige Health Post,Posto de Saúde,MoH,-9.2529,16.3675,Other
1177,Angola,Malanje,Ngondo Health Post,Posto de Saúde,MoH,-9.6377,16.1751,Other
1178,Angola,Malanje,Ngunga Palanca Health Post,Posto de Saúde,MoH,-11.0322,17.8845,Other
1179,Angola,Malanje,Nhangue Health Post,Posto de Saúde,MoH,-8.6285,16.2568,Other
1180,Angola,Malanje,Pipa Health Post,Posto de Saúde,MoH,-9.297,16.2362,Other
1181,Angola,Malanje,Pungo Andongo Health Post,Posto de Saúde,MoH,-9.6704,15.588,Other
1182,Angola,Malanje,Quessua Health Post,Posto de Saúde,MoH,-9.4685,16.2952,Other
1183,Angola,Malanje,Queximenha Health Post,Posto de Saúde,MoH,-9.4235,15.7427,Combination
1184,Angola,Malanje,Quihuhu Health Post,Posto de Saúde,MoH,-7.7436,16.5976,Other
1185,Angola,Malanje,Quimbamba Health Post,Posto de Saúde,MoH,-9.337,16.323,Other
1186,Angola,Malanje,Quimbanda Health Post,Posto de Saúde,MoH,-8.2456,16.439,Other
1187,Angola,Malanje,Quimbango Health Post,Posto de Saúde,MoH,-10.8895,18.0959,Other
1188,Angola,Malanje,Quinguengue Health Post,Posto de Saúde,MoH,-7.6368,16.9604,Other
1189,Angola,Malanje,Quinje Health Post,Posto de Saúde,MoH,-9.0845,15.6818,Other
1190,Angola,Malanje,Quirima Municipal Hospital,Municipal Hospital,Govt.,-10.8926,18.0911,Other
1191,Angola,Malanje,Quissaco Health Post,Posto de Saúde,MoH,-9.543,16.1805,Other
1192,Angola,Malanje,Quissol Health Post,Posto de Saúde,MoH,-9.5843,16.4629,Other
1193,Angola,Malanje,Quissua 1 Health Post,Posto de Saúde,MoH,-9.0941,16.6022,Other
